$GNRMC,172700.00,A,4851.0052,N,00031.5013,W,0.0120,0.0000,040526,0.0,,D*76
$GNGGA,172700.00,4851.0052,N,00031.5013,W,2,12,0.5,80.9,M,46.3,M,0,*6C
$GNRMC,172701.00,A,4851.0052,N,00031.5013,W,0.0080,0.0000,040526,0.0,,D*7C
$GNGGA,172701.00,4851.0052,N,00031.5013,W,2,12,0.5,80.8,M,46.3,M,0,*6C
$GNRMC,172702.00,A,4851.0053,N,00031.5014,W,0.0030,0.0000,040526,0.0,,D*72
$GNGGA,172702.00,4851.0053,N,00031.5014,W,2,12,0.5,80.8,M,46.3,M,0,*69
$GNRMC,172703.00,A,4851.0053,N,00031.5014,W,0.0190,0.0000,040526,0.0,,D*78
$GNGGA,172703.00,4851.0053,N,00031.5014,W,2,12,0.5,80.7,M,46.3,M,0,*67
$GNRMC,172704.00,A,4851.0053,N,00031.5014,W,0.0110,0.0000,040526,0.0,,D*77
$GNGGA,172704.00,4851.0053,N,00031.5014,W,2,12,0.5,80.7,M,46.3,M,0,*60
$GNRMC,172705.00,A,4851.0053,N,00031.5014,W,0.0060,0.0000,040526,0.0,,D*70
$GNGGA,172705.00,4851.0053,N,00031.5014,W,2,12,0.5,80.6,M,46.3,M,0,*60
$GNRMC,172706.00,A,4851.0054,N,00031.5015,W,0.0110,0.0000,040526,0.0,,D*73
$GNGGA,172706.00,4851.0054,N,00031.5015,W,2,12,0.5,80.5,M,46.3,M,0,*66
$GNRMC,172707.00,A,4851.0054,N,00031.5015,W,0.0110,0.0000,040526,0.0,,D*72
$GNGGA,172707.00,4851.0054,N,00031.5015,W,2,12,0.5,80.5,M,46.3,M,0,*67
$GNRMC,172708.00,A,4851.0054,N,00031.5015,W,0.0140,0.0000,040526,0.0,,D*78
$GNGGA,172708.00,4851.0054,N,00031.5015,W,2,12,0.5,80.4,M,46.3,M,0,*69
$GNRMC,172709.00,A,4851.0055,N,00031.5015,W,0.0030,0.0000,040526,0.0,,D*7E
$GNGGA,172709.00,4851.0055,N,00031.5015,W,2,12,0.5,80.4,M,46.3,M,0,*69
$GNRMC,172710.00,A,4851.0055,N,00031.5015,W,0.0060,0.0000,040526,0.0,,D*73
$GNGGA,172710.00,4851.0055,N,00031.5015,W,2,12,0.5,80.4,M,46.3,M,0,*61
$GNRMC,172711.00,A,4851.0055,N,00031.5015,W,0.0370,0.0000,040526,0.0,,D*70
$GNGGA,172711.00,4851.0055,N,00031.5015,W,2,12,0.5,80.3,M,46.3,M,0,*67
$GNRMC,172712.00,A,4851.0055,N,00031.5015,W,0.0190,0.0000,040526,0.0,,D*7F
$GNGGA,172712.00,4851.0055,N,00031.5015,W,2,12,0.5,80.2,M,46.3,M,0,*65
$GNRMC,172713.00,A,4851.0056,N,00031.5014,W,0.1820,0.0000,040526,0.0,,D*7F
$GNGGA,172713.00,4851.0056,N,00031.5014,W,2,12,0.5,80.2,M,46.3,M,0,*66
$GNRMC,172714.00,A,4851.0056,N,00031.5014,W,0.0220,0.0000,040526,0.0,,D*73
$GNGGA,172714.00,4851.0056,N,00031.5014,W,2,12,0.5,80.2,M,46.3,M,0,*61
$GNRMC,172715.00,A,4851.0056,N,00031.5015,W,0.0180,0.0000,040526,0.0,,D*7A
$GNGGA,172715.00,4851.0056,N,00031.5015,W,2,12,0.5,80.2,M,46.3,M,0,*61
$GNRMC,172716.00,A,4851.0056,N,00031.5015,W,0.0410,0.0000,040526,0.0,,D*75
$GNGGA,172716.00,4851.0056,N,00031.5015,W,2,12,0.5,80.2,M,46.3,M,0,*62
$GNRMC,172717.00,A,4851.0057,N,00031.5016,W,0.0300,0.0000,040526,0.0,,D*70
$GNGGA,172717.00,4851.0057,N,00031.5016,W,2,12,0.5,80.2,M,46.3,M,0,*61
$GNRMC,172718.00,A,4851.0057,N,00031.5016,W,0.0150,0.0000,040526,0.0,,D*78
$GNGGA,172718.00,4851.0057,N,00031.5016,W,2,12,0.5,80.1,M,46.3,M,0,*6D
$GNRMC,172719.00,A,4851.0057,N,00031.5016,W,0.0070,0.0000,040526,0.0,,D*7A
$GNGGA,172719.00,4851.0057,N,00031.5016,W,2,12,0.5,80.2,M,46.3,M,0,*6F
$GNRMC,172720.00,A,4851.0057,N,00031.5016,W,0.0260,0.0000,040526,0.0,,D*73
$GNGGA,172720.00,4851.0057,N,00031.5016,W,2,12,0.5,80.2,M,46.3,M,0,*65
$GNRMC,172721.00,A,4851.0058,N,00031.5016,W,0.0170,0.0000,040526,0.0,,D*7F
$GNGGA,172721.00,4851.0058,N,00031.5016,W,2,12,0.5,80.2,M,46.3,M,0,*6B
$GNRMC,172722.00,A,4851.0058,N,00031.5016,W,0.0280,0.0000,040526,0.0,,D*70
$GNGGA,172722.00,4851.0058,N,00031.5016,W,2,12,0.5,80.3,M,46.3,M,0,*69
$GNRMC,172723.00,A,4851.0058,N,00031.5017,W,0.0460,0.0000,040526,0.0,,D*78
$GNGGA,172723.00,4851.0058,N,00031.5017,W,2,12,0.5,80.3,M,46.3,M,0,*69
$GNRMC,172724.00,A,4851.0058,N,00031.5018,W,0.0140,0.0000,040526,0.0,,D*77
$GNGGA,172724.00,4851.0058,N,00031.5018,W,2,12,0.5,80.2,M,46.3,M,0,*60
$GNRMC,172725.00,A,4851.0059,N,00031.5018,W,0.0270,0.0000,040526,0.0,,D*77
$GNGGA,172725.00,4851.0059,N,00031.5018,W,2,12,0.5,80.3,M,46.3,M,0,*61
$GNRMC,172726.00,A,4851.0059,N,00031.5018,W,0.0140,0.0000,040526,0.0,,D*74
$GNGGA,172726.00,4851.0059,N,00031.5018,W,2,12,0.5,80.3,M,46.3,M,0,*62
$GNRMC,172727.00,A,4851.0059,N,00031.5019,W,0.0160,0.0000,040526,0.0,,D*76
$GNGGA,172727.00,4851.0059,N,00031.5019,W,2,12,0.5,80.3,M,46.3,M,0,*62
$GNRMC,172728.00,A,4851.0059,N,00031.5019,W,0.0180,0.0000,040526,0.0,,D*77
$GNGGA,172728.00,4851.0059,N,00031.5019,W,2,12,0.5,80.3,M,46.3,M,0,*6D
$GNRMC,172729.00,A,4851.0059,N,00031.5019,W,0.0220,0.0000,040526,0.0,,D*7F
$GNGGA,172729.00,4851.0059,N,00031.5019,W,2,12,0.5,80.3,M,46.3,M,0,*6C
$GNRMC,172730.00,A,4851.0060,N,00031.5019,W,0.0330,0.0000,040526,0.0,,D*7D
$GNGGA,172730.00,4851.0060,N,00031.5019,W,2,12,0.5,80.3,M,46.3,M,0,*6E
$GNRMC,172731.00,A,4851.0060,N,00031.5019,W,0.0020,0.0000,040526,0.0,,D*7E
$GNGGA,172731.00,4851.0060,N,00031.5019,W,2,12,0.5,80.4,M,46.3,M,0,*68
$GNRMC,172732.00,A,4851.0060,N,00031.5020,W,0.0120,0.0000,040526,0.0,,D*76
$GNGGA,172732.00,4851.0060,N,00031.5020,W,2,12,0.5,80.4,M,46.3,M,0,*61
$GNRMC,172733.00,A,4851.0060,N,00031.5020,W,0.0260,0.0000,040526,0.0,,D*70
$GNGGA,172733.00,4851.0060,N,00031.5020,W,2,12,0.5,80.5,M,46.3,M,0,*61
$GNRMC,172734.00,A,4851.0060,N,00031.5020,W,0.0060,0.0000,040526,0.0,,D*75
$GNGGA,172734.00,4851.0060,N,00031.5020,W,2,12,0.5,80.5,M,46.3,M,0,*66
$GNRMC,172735.00,A,4851.0060,N,00031.5020,W,0.0110,0.0000,040526,0.0,,D*72
$GNGGA,172735.00,4851.0060,N,00031.5020,W,2,12,0.5,80.6,M,46.3,M,0,*64
$GNRMC,172736.00,A,4851.0061,N,00031.5020,W,0.0100,0.0000,040526,0.0,,D*71
$GNGGA,172736.00,4851.0061,N,00031.5020,W,2,12,0.5,80.6,M,46.3,M,0,*66
$GNRMC,172737.00,A,4851.0061,N,00031.5019,W,0.0460,0.0000,040526,0.0,,D*79
$GNGGA,172737.00,4851.0061,N,00031.5019,W,2,12,0.5,80.7,M,46.3,M,0,*6C
$GNRMC,172738.00,A,4851.0061,N,00031.5019,W,0.0260,0.0000,040526,0.0,,D*70
$GNGGA,172738.00,4851.0061,N,00031.5019,W,2,12,0.5,80.7,M,46.3,M,0,*63
$GNRMC,172739.00,A,4851.0061,N,00031.5019,W,0.0150,0.0000,040526,0.0,,D*71
$GNGGA,172739.00,4851.0061,N,00031.5019,W,2,12,0.5,80.8,M,46.3,M,0,*6D
$GNRMC,172740.00,A,4851.0061,N,00031.5019,W,0.0280,0.0000,040526,0.0,,D*71
$GNGGA,172740.00,4851.0061,N,00031.5019,W,2,12,0.5,80.8,M,46.3,M,0,*63
$GNRMC,172741.00,A,4851.0061,N,00031.5019,W,0.0190,0.0000,040526,0.0,,D*72
$GNGGA,172741.00,4851.0061,N,00031.5019,W,2,12,0.5,80.9,M,46.3,M,0,*63
$GNRMC,172742.00,A,4851.0062,N,00031.5018,W,0.0350,0.0000,040526,0.0,,D*7D
$GNGGA,172742.00,4851.0062,N,00031.5018,W,2,12,0.5,80.9,M,46.3,M,0,*62
$GNRMC,172743.00,A,4851.0062,N,00031.5019,W,0.0330,0.0000,040526,0.0,,D*7B
$GNGGA,172743.00,4851.0062,N,00031.5019,W,2,12,0.5,81.0,M,46.3,M,0,*6A
$GNRMC,172744.00,A,4851.0062,N,00031.5019,W,0.0160,0.0000,040526,0.0,,D*7B
$GNGGA,172744.00,4851.0062,N,00031.5019,W,2,12,0.5,81.1,M,46.3,M,0,*6C
$GNRMC,172745.00,A,4851.0062,N,00031.5019,W,0.0130,0.0000,040526,0.0,,D*7F
$GNGGA,172745.00,4851.0062,N,00031.5019,W,2,12,0.5,81.2,M,46.3,M,0,*6E
$GNRMC,172746.00,A,4851.0062,N,00031.5019,W,0.0030,0.0000,040526,0.0,,D*7D
$GNGGA,172746.00,4851.0062,N,00031.5019,W,2,12,0.5,81.2,M,46.3,M,0,*6D
$GNRMC,172747.00,A,4851.0063,N,00031.5019,W,0.0110,0.0000,040526,0.0,,D*7E
$GNGGA,172747.00,4851.0063,N,00031.5019,W,2,12,0.5,81.3,M,46.3,M,0,*6C
$GNRMC,172748.00,A,4851.0063,N,00031.5019,W,0.0260,0.0000,040526,0.0,,D*75
$GNGGA,172748.00,4851.0063,N,00031.5019,W,2,12,0.5,81.4,M,46.3,M,0,*64
$GNRMC,172749.00,A,4851.0063,N,00031.5019,W,0.0100,0.0000,040526,0.0,,D*71
$GNGGA,172749.00,4851.0063,N,00031.5019,W,2,12,0.5,81.4,M,46.3,M,0,*65
$GNRMC,172750.00,A,4851.0063,N,00031.5020,W,0.0080,0.0000,040526,0.0,,D*7A
$GNGGA,172750.00,4851.0063,N,00031.5020,W,2,12,0.5,81.5,M,46.3,M,0,*66
$GNRMC,172751.00,A,4851.0064,N,00031.5020,W,0.0060,0.0000,040526,0.0,,D*72
$GNGGA,172751.00,4851.0064,N,00031.5020,W,2,12,0.5,81.6,M,46.3,M,0,*63
$GNRMC,172752.00,A,4851.0064,N,00031.5020,W,0.0140,0.0000,040526,0.0,,D*72
$GNGGA,172752.00,4851.0064,N,00031.5020,W,2,12,0.5,81.7,M,46.3,M,0,*61
$GNRMC,172753.00,A,4851.0064,N,00031.5020,W,0.0170,0.0000,040526,0.0,,D*70
$GNGGA,172753.00,4851.0064,N,00031.5020,W,2,12,0.5,81.7,M,46.3,M,0,*60
$GNRMC,172754.00,A,4851.0064,N,00031.5021,W,0.0090,0.0000,040526,0.0,,D*79
$GNGGA,172754.00,4851.0064,N,00031.5021,W,2,12,0.5,81.8,M,46.3,M,0,*69
$GNRMC,172755.00,A,4851.0064,N,00031.5021,W,0.0120,0.0000,040526,0.0,,D*72
$GNGGA,172755.00,4851.0064,N,00031.5021,W,2,12,0.5,81.9,M,46.3,M,0,*69
$GNRMC,172756.00,A,4851.0065,N,00031.5021,W,0.0490,0.0000,040526,0.0,,D*7E
$GNGGA,172756.00,4851.0065,N,00031.5021,W,2,12,0.5,81.9,M,46.3,M,0,*6B
$GNRMC,172757.00,A,4851.0065,N,00031.5021,W,0.0330,0.0000,040526,0.0,,D*72
$GNGGA,172757.00,4851.0065,N,00031.5021,W,2,12,0.5,82.0,M,46.3,M,0,*60
$GNRMC,172758.00,A,4851.0065,N,00031.5021,W,0.0340,0.0000,040526,0.0,,D*7A
$GNGGA,172758.00,4851.0065,N,00031.5021,W,2,12,0.5,82.1,M,46.3,M,0,*6E
$GNRMC,172759.00,A,4851.0065,N,00031.5021,W,0.0120,0.0000,040526,0.0,,D*7F
$GNGGA,172759.00,4851.0065,N,00031.5021,W,2,12,0.5,82.1,M,46.3,M,0,*6F
$GNRMC,172800.00,A,4851.0065,N,00031.5021,W,0.0220,0.0000,040526,0.0,,D*7F
$GNGGA,172800.00,4851.0065,N,00031.5021,W,2,12,0.5,82.2,M,46.3,M,0,*6F
$GNRMC,172801.00,A,4851.0065,N,00031.5021,W,0.0110,0.0000,040526,0.0,,D*7E
$GNGGA,172801.00,4851.0065,N,00031.5021,W,2,12,0.5,82.3,M,46.3,M,0,*6F
$GNRMC,172802.00,A,4851.0065,N,00031.5021,W,0.0050,0.0000,040526,0.0,,D*78
$GNGGA,172802.00,4851.0065,N,00031.5021,W,2,12,0.5,82.4,M,46.3,M,0,*6B
$GNRMC,172803.00,A,4851.0065,N,00031.5022,W,0.0140,0.0000,040526,0.0,,D*7A
$GNGGA,172803.00,4851.0065,N,00031.5022,W,2,12,0.5,82.5,M,46.3,M,0,*68
$GNRMC,172804.00,A,4851.0064,N,00031.5022,W,0.0090,0.0000,040526,0.0,,D*70
$GNGGA,172804.00,4851.0064,N,00031.5022,W,2,12,0.5,82.5,M,46.3,M,0,*6E
$GNRMC,172805.00,A,4851.0064,N,00031.5022,W,0.0260,0.0000,040526,0.0,,D*7C
$GNGGA,172805.00,4851.0064,N,00031.5022,W,2,12,0.5,82.5,M,46.3,M,0,*6F
$GNRMC,172806.00,A,4851.0064,N,00031.5023,W,0.0230,0.0000,040526,0.0,,D*7B
$GNGGA,172806.00,4851.0064,N,00031.5023,W,2,12,0.5,82.6,M,46.3,M,0,*6E
$GNRMC,172807.00,A,4851.0064,N,00031.5023,W,0.0030,0.0000,040526,0.0,,D*78
$GNGGA,172807.00,4851.0064,N,00031.5023,W,2,12,0.5,82.6,M,46.3,M,0,*6F
$GNRMC,172808.00,A,4851.0064,N,00031.5023,W,0.0200,0.0000,040526,0.0,,D*76
$GNGGA,172808.00,4851.0064,N,00031.5023,W,2,12,0.5,82.5,M,46.3,M,0,*63
$GNRMC,172809.00,A,4851.0064,N,00031.5023,W,0.0100,0.0000,040526,0.0,,D*74
$GNGGA,172809.00,4851.0064,N,00031.5023,W,2,12,0.5,82.5,M,46.3,M,0,*62
$GNRMC,172810.00,A,4851.0064,N,00031.5023,W,0.0230,0.0000,040526,0.0,,D*7C
$GNGGA,172810.00,4851.0064,N,00031.5023,W,2,12,0.5,82.6,M,46.3,M,0,*69
$GNRMC,172811.00,A,4851.0063,N,00031.5023,W,0.0410,0.0000,040526,0.0,,D*7E
$GNGGA,172811.00,4851.0063,N,00031.5023,W,2,12,0.5,82.5,M,46.3,M,0,*6C
$GNRMC,172812.00,A,4851.0063,N,00031.5023,W,0.0190,0.0000,040526,0.0,,D*70
$GNGGA,172812.00,4851.0063,N,00031.5023,W,2,12,0.5,82.5,M,46.3,M,0,*6F
$GNRMC,172813.00,A,4851.0063,N,00031.5023,W,0.0180,0.0000,040526,0.0,,D*70
$GNGGA,172813.00,4851.0063,N,00031.5023,W,2,12,0.5,82.5,M,46.3,M,0,*6E
$GNRMC,172814.00,A,4851.0063,N,00031.5023,W,0.0480,0.0000,040526,0.0,,D*72
$GNGGA,172814.00,4851.0063,N,00031.5023,W,2,12,0.5,82.5,M,46.3,M,0,*69
$GNRMC,172815.00,A,4851.0062,N,00031.5023,W,0.0050,0.0000,040526,0.0,,D*7B
$GNGGA,172815.00,4851.0062,N,00031.5023,W,2,12,0.5,82.5,M,46.3,M,0,*69
$GNRMC,172816.00,A,4851.0062,N,00031.5024,W,0.0130,0.0000,040526,0.0,,D*78
$GNGGA,172816.00,4851.0062,N,00031.5024,W,2,12,0.5,82.5,M,46.3,M,0,*6D
$GNRMC,172817.00,A,4851.0062,N,00031.5024,W,0.0110,0.0000,040526,0.0,,D*7B
$GNGGA,172817.00,4851.0062,N,00031.5024,W,2,12,0.5,82.5,M,46.3,M,0,*6C
$GNRMC,172818.00,A,4851.0062,N,00031.5024,W,0.0220,0.0000,040526,0.0,,D*74
$GNGGA,172818.00,4851.0062,N,00031.5024,W,2,12,0.5,82.5,M,46.3,M,0,*63
$GNRMC,172819.00,A,4851.0062,N,00031.5024,W,0.0200,0.0000,040526,0.0,,D*77
$GNGGA,172819.00,4851.0062,N,00031.5024,W,2,12,0.5,82.5,M,46.3,M,0,*62
$GNRMC,172820.00,A,4851.0062,N,00031.5024,W,0.0090,0.0000,040526,0.0,,D*76
$GNGGA,172820.00,4851.0062,N,00031.5024,W,2,12,0.5,82.5,M,46.3,M,0,*68
$GNRMC,172821.00,A,4851.0062,N,00031.5025,W,0.0100,0.0000,040526,0.0,,D*7E
$GNGGA,172821.00,4851.0062,N,00031.5025,W,2,12,0.5,82.5,M,46.3,M,0,*68
$GNRMC,172822.00,A,4851.0063,N,00031.5026,W,0.0280,0.0000,040526,0.0,,D*74
$GNGGA,172822.00,4851.0063,N,00031.5026,W,2,12,0.5,82.5,M,46.3,M,0,*69
$GNRMC,172823.00,A,4851.0063,N,00031.5026,W,0.0220,0.0000,040526,0.0,,D*7F
$GNGGA,172823.00,4851.0063,N,00031.5026,W,2,12,0.5,82.5,M,46.3,M,0,*68
$GNRMC,172824.00,A,4851.0063,N,00031.5026,W,0.0180,0.0000,040526,0.0,,D*71
$GNGGA,172824.00,4851.0063,N,00031.5026,W,2,12,0.5,82.5,M,46.3,M,0,*6F
$GNRMC,172825.00,A,4851.0063,N,00031.5026,W,0.0100,0.0000,040526,0.0,,D*78
$GNGGA,172825.00,4851.0063,N,00031.5026,W,2,12,0.5,82.5,M,46.3,M,0,*6E
$GNRMC,172826.00,A,4851.0063,N,00031.5026,W,0.0120,0.0000,040526,0.0,,D*79
$GNGGA,172826.00,4851.0063,N,00031.5026,W,2,12,0.5,82.6,M,46.3,M,0,*6E
$GNRMC,172827.00,A,4851.0063,N,00031.5026,W,0.0220,0.0000,040526,0.0,,D*7B
$GNGGA,172827.00,4851.0063,N,00031.5026,W,2,12,0.5,82.6,M,46.3,M,0,*6F
$GNRMC,172828.00,A,4851.0063,N,00031.5026,W,0.0140,0.0000,040526,0.0,,D*71
$GNGGA,172828.00,4851.0063,N,00031.5026,W,2,12,0.5,82.6,M,46.3,M,0,*60
$GNRMC,172829.00,A,4851.0063,N,00031.5026,W,0.0150,0.0000,040526,0.0,,D*71
$GNGGA,172829.00,4851.0063,N,00031.5026,W,2,12,0.5,82.6,M,46.3,M,0,*61
$GNRMC,172830.00,A,4851.0063,N,00031.5026,W,0.0120,0.0000,040526,0.0,,D*7E
$GNGGA,172830.00,4851.0063,N,00031.5026,W,2,12,0.5,82.6,M,46.3,M,0,*69
$GNRMC,172831.00,A,4851.0063,N,00031.5026,W,0.0100,0.0000,040526,0.0,,D*7D
$GNGGA,172831.00,4851.0063,N,00031.5026,W,2,12,0.5,82.6,M,46.3,M,0,*68
$GNRMC,172832.00,A,4851.0063,N,00031.5026,W,0.0260,0.0000,040526,0.0,,D*7B
$GNGGA,172832.00,4851.0063,N,00031.5026,W,2,12,0.5,82.7,M,46.3,M,0,*6A
$GNRMC,172833.00,A,4851.0063,N,00031.5025,W,0.0120,0.0000,040526,0.0,,D*7E
$GNGGA,172833.00,4851.0063,N,00031.5025,W,2,12,0.5,82.7,M,46.3,M,0,*68
$GNRMC,172834.00,A,4851.0063,N,00031.5025,W,0.0210,0.0000,040526,0.0,,D*79
$GNGGA,172834.00,4851.0063,N,00031.5025,W,2,12,0.5,82.7,M,46.3,M,0,*6F
$GNRMC,172835.00,A,4851.0063,N,00031.5025,W,0.0090,0.0000,040526,0.0,,D*72
$GNGGA,172835.00,4851.0063,N,00031.5025,W,2,12,0.5,82.6,M,46.3,M,0,*6F
$GNRMC,172836.00,A,4851.0063,N,00031.5025,W,0.0100,0.0000,040526,0.0,,D*79
$GNGGA,172836.00,4851.0063,N,00031.5025,W,2,12,0.5,82.6,M,46.3,M,0,*6C
$GNRMC,172837.00,A,4851.0063,N,00031.5024,W,0.0110,0.0000,040526,0.0,,D*78
$GNGGA,172837.00,4851.0063,N,00031.5024,W,2,12,0.5,82.6,M,46.3,M,0,*6C
$GNRMC,172838.00,A,4851.0062,N,00031.5024,W,0.0040,0.0000,040526,0.0,,D*72
$GNGGA,172838.00,4851.0062,N,00031.5024,W,2,12,0.5,82.5,M,46.3,M,0,*61
$GNRMC,172839.00,A,4851.0062,N,00031.5023,W,0.0180,0.0000,040526,0.0,,D*79
$GNGGA,172839.00,4851.0062,N,00031.5023,W,2,12,0.5,82.5,M,46.3,M,0,*67
$GNRMC,172840.00,A,4851.0062,N,00031.5023,W,0.0110,0.0000,040526,0.0,,D*7E
$GNGGA,172840.00,4851.0062,N,00031.5023,W,2,12,0.5,82.4,M,46.3,M,0,*68
$GNRMC,172841.00,A,4851.0062,N,00031.5023,W,0.0060,0.0000,040526,0.0,,D*79
$GNGGA,172841.00,4851.0062,N,00031.5023,W,2,12,0.5,82.4,M,46.3,M,0,*69
$GNRMC,172842.00,A,4851.0062,N,00031.5023,W,0.0280,0.0000,040526,0.0,,D*76
$GNGGA,172842.00,4851.0062,N,00031.5023,W,2,12,0.5,82.3,M,46.3,M,0,*6D
$GNRMC,172843.00,A,4851.0061,N,00031.5023,W,0.0120,0.0000,040526,0.0,,D*7D
$GNGGA,172843.00,4851.0061,N,00031.5023,W,2,12,0.5,82.3,M,46.3,M,0,*6F
$GNRMC,172844.00,A,4851.0061,N,00031.5023,W,0.0240,0.0000,040526,0.0,,D*7F
$GNGGA,172844.00,4851.0061,N,00031.5023,W,2,12,0.5,82.2,M,46.3,M,0,*69
$GNRMC,172845.00,A,4851.0061,N,00031.5023,W,0.0210,0.0000,040526,0.0,,D*7B
$GNGGA,172845.00,4851.0061,N,00031.5023,W,2,12,0.5,82.2,M,46.3,M,0,*68
$GNRMC,172846.00,A,4851.0061,N,00031.5023,W,0.0050,0.0000,040526,0.0,,D*7E
$GNGGA,172846.00,4851.0061,N,00031.5023,W,2,12,0.5,82.2,M,46.3,M,0,*6B
$GNRMC,172847.00,A,4851.0060,N,00031.5023,W,0.0190,0.0000,040526,0.0,,D*73
$GNGGA,172847.00,4851.0060,N,00031.5023,W,2,12,0.5,82.2,M,46.3,M,0,*6B
$GNRMC,172848.00,A,4851.0060,N,00031.5023,W,0.0100,0.0000,040526,0.0,,D*75
$GNGGA,172848.00,4851.0060,N,00031.5023,W,2,12,0.5,82.2,M,46.3,M,0,*64
$GNRMC,172849.00,A,4851.0060,N,00031.5023,W,0.0030,0.0000,040526,0.0,,D*76
$GNGGA,172849.00,4851.0060,N,00031.5023,W,2,12,0.5,82.2,M,46.3,M,0,*65
$GNRMC,172850.00,A,4851.0060,N,00031.5023,W,0.0120,0.0000,040526,0.0,,D*7E
$GNGGA,172850.00,4851.0060,N,00031.5023,W,2,12,0.5,82.1,M,46.3,M,0,*6E
$GNRMC,172851.00,A,4851.0060,N,00031.5023,W,0.0110,0.0000,040526,0.0,,D*7C
$GNGGA,172851.00,4851.0060,N,00031.5023,W,2,12,0.5,82.1,M,46.3,M,0,*6F
$GNRMC,172852.00,A,4851.0059,N,00031.5023,W,0.0140,0.0000,040526,0.0,,D*70
$GNGGA,172852.00,4851.0059,N,00031.5023,W,2,12,0.5,82.1,M,46.3,M,0,*66
$GNRMC,172853.00,A,4851.0059,N,00031.5023,W,0.0340,0.0000,040526,0.0,,D*73
$GNGGA,172853.00,4851.0059,N,00031.5023,W,2,12,0.5,82.0,M,46.3,M,0,*66
$GNRMC,172854.00,A,4851.0059,N,00031.5023,W,0.0130,0.0000,040526,0.0,,D*71
$GNGGA,172854.00,4851.0059,N,00031.5023,W,2,12,0.5,82.0,M,46.3,M,0,*61
$GNRMC,172855.00,A,4851.0058,N,00031.5023,W,0.0330,0.0000,040526,0.0,,D*73
$GNGGA,172855.00,4851.0058,N,00031.5023,W,2,12,0.5,81.9,M,46.3,M,0,*6B
$GNRMC,172856.00,A,4851.0058,N,00031.5023,W,0.0290,0.0000,040526,0.0,,D*7B
$GNGGA,172856.00,4851.0058,N,00031.5023,W,2,12,0.5,81.9,M,46.3,M,0,*68
$GNRMC,172857.00,A,4851.0058,N,00031.5023,W,0.0090,0.0000,040526,0.0,,D*78
$GNGGA,172857.00,4851.0058,N,00031.5023,W,2,12,0.5,81.8,M,46.3,M,0,*68
$GNRMC,172858.00,A,4851.0057,N,00031.5023,W,0.0300,0.0000,040526,0.0,,D*72
$GNGGA,172858.00,4851.0057,N,00031.5023,W,2,12,0.5,81.8,M,46.3,M,0,*68
$GNRMC,172859.00,A,4851.0057,N,00031.5022,W,0.0540,0.0000,040526,0.0,,D*70
$GNGGA,172859.00,4851.0057,N,00031.5022,W,2,12,0.5,81.8,M,46.3,M,0,*68
$GNRMC,172900.00,A,4851.0057,N,00031.5021,W,0.0550,0.0000,040526,0.0,,D*7F
$GNGGA,172900.00,4851.0057,N,00031.5021,W,2,12,0.5,81.6,M,46.3,M,0,*68
$GNRMC,172901.00,A,4851.0057,N,00031.5022,W,0.0460,0.0000,040526,0.0,,D*7F
$GNGGA,172901.00,4851.0057,N,00031.5022,W,2,12,0.5,81.6,M,46.3,M,0,*6A
$GNRMC,172902.00,A,4851.0057,N,00031.5022,W,0.0370,0.0000,040526,0.0,,D*7A
$GNGGA,172902.00,4851.0057,N,00031.5022,W,2,12,0.5,81.5,M,46.3,M,0,*6A
$GNRMC,172903.00,A,4851.0057,N,00031.5021,W,0.0190,0.0000,040526,0.0,,D*74
$GNGGA,172903.00,4851.0057,N,00031.5021,W,2,12,0.5,81.5,M,46.3,M,0,*68
$GNRMC,172904.00,A,4851.0056,N,00031.5021,W,0.0490,0.0000,040526,0.0,,D*77
$GNGGA,172904.00,4851.0056,N,00031.5021,W,2,12,0.5,81.5,M,46.3,M,0,*6E
$GNRMC,172905.00,A,4851.0056,N,00031.5021,W,0.0080,0.0000,040526,0.0,,D*73
$GNGGA,172905.00,4851.0056,N,00031.5021,W,2,12,0.5,81.4,M,46.3,M,0,*6E
$GNRMC,172906.00,A,4851.0056,N,00031.5021,W,0.0270,0.0000,040526,0.0,,D*7D
$GNGGA,172906.00,4851.0056,N,00031.5021,W,2,12,0.5,81.4,M,46.3,M,0,*6D
$GNRMC,172907.00,A,4851.0056,N,00031.5021,W,0.0290,0.0000,040526,0.0,,D*72
$GNGGA,172907.00,4851.0056,N,00031.5021,W,2,12,0.5,81.4,M,46.3,M,0,*6C
$GNRMC,172908.00,A,4851.0055,N,00031.5021,W,0.0100,0.0000,040526,0.0,,D*74
$GNGGA,172908.00,4851.0055,N,00031.5021,W,2,12,0.5,81.4,M,46.3,M,0,*60
$GNRMC,172909.00,A,4851.0055,N,00031.5021,W,0.0260,0.0000,040526,0.0,,D*70
$GNGGA,172909.00,4851.0055,N,00031.5021,W,2,12,0.5,81.4,M,46.3,M,0,*61
$GNRMC,172910.00,A,4851.0055,N,00031.5021,W,0.0290,0.0000,040526,0.0,,D*77
$GNGGA,172910.00,4851.0055,N,00031.5021,W,2,12,0.5,81.3,M,46.3,M,0,*6E
$GNRMC,172911.00,A,4851.0055,N,00031.5021,W,0.0160,0.0000,040526,0.0,,D*7A
$GNGGA,172911.00,4851.0055,N,00031.5021,W,2,12,0.5,81.4,M,46.3,M,0,*68
$GNRMC,172912.00,A,4851.0054,N,00031.5021,W,0.0420,0.0000,040526,0.0,,D*79
$GNGGA,172912.00,4851.0054,N,00031.5021,W,2,12,0.5,81.4,M,46.3,M,0,*6A
$GNRMC,172913.00,A,4851.0054,N,00031.5021,W,0.0970,0.0000,040526,0.0,,D*70
$GNGGA,172913.00,4851.0054,N,00031.5021,W,2,12,0.5,81.4,M,46.3,M,0,*6B
$GNRMC,172914.00,A,4851.0054,N,00031.5021,W,0.0170,0.0000,040526,0.0,,D*7F
$GNGGA,172914.00,4851.0054,N,00031.5021,W,2,12,0.5,81.5,M,46.3,M,0,*6D
$GNRMC,172915.00,A,4851.0054,N,00031.5021,W,0.0440,0.0000,040526,0.0,,D*78
$GNGGA,172915.00,4851.0054,N,00031.5021,W,2,12,0.5,81.5,M,46.3,M,0,*6C
$GNRMC,172916.00,A,4851.0054,N,00031.5021,W,0.0370,0.0000,040526,0.0,,D*7F
$GNGGA,172916.00,4851.0054,N,00031.5021,W,2,12,0.5,81.5,M,46.3,M,0,*6F
$GNRMC,172917.00,A,4851.0054,N,00031.5020,W,0.0340,0.0000,040526,0.0,,D*7C
$GNGGA,172917.00,4851.0054,N,00031.5020,W,2,12,0.5,81.4,M,46.3,M,0,*6E
$GNRMC,172918.00,A,4851.0054,N,00031.5020,W,0.0110,0.0000,040526,0.0,,D*74
$GNGGA,172918.00,4851.0054,N,00031.5020,W,2,12,0.5,81.4,M,46.3,M,0,*61
$GNRMC,172919.00,A,4851.0054,N,00031.5019,W,0.0160,0.0000,040526,0.0,,D*78
$GNGGA,172919.00,4851.0054,N,00031.5019,W,2,12,0.5,81.3,M,46.3,M,0,*6D
$GNRMC,172920.00,A,4851.0054,N,00031.5018,W,0.0180,0.0000,040526,0.0,,D*7D
$GNGGA,172920.00,4851.0054,N,00031.5018,W,2,12,0.5,81.2,M,46.3,M,0,*67
$GNRMC,172921.00,A,4851.0054,N,00031.5018,W,0.0070,0.0000,040526,0.0,,D*72
$GNGGA,172921.00,4851.0054,N,00031.5018,W,2,12,0.5,81.2,M,46.3,M,0,*66
$GNRMC,172922.00,A,4851.0054,N,00031.5017,W,0.0160,0.0000,040526,0.0,,D*7E
$GNGGA,172922.00,4851.0054,N,00031.5017,W,2,12,0.5,81.1,M,46.3,M,0,*69
$GNRMC,172923.00,A,4851.0054,N,00031.5017,W,0.0220,0.0000,040526,0.0,,D*78
$GNGGA,172923.00,4851.0054,N,00031.5017,W,2,12,0.5,81.0,M,46.3,M,0,*69
$GNRMC,172924.00,A,4851.0054,N,00031.5016,W,0.0090,0.0000,040526,0.0,,D*77
$GNGGA,172924.00,4851.0054,N,00031.5016,W,2,12,0.5,80.9,M,46.3,M,0,*67
$GNRMC,172925.00,A,4851.0054,N,00031.5016,W,0.0040,0.0000,040526,0.0,,D*7B
$GNGGA,172925.00,4851.0054,N,00031.5016,W,2,12,0.5,80.8,M,46.3,M,0,*67
$GNRMC,172926.00,A,4851.0054,N,00031.5016,W,0.0030,0.0000,040526,0.0,,D*7F
$GNGGA,172926.00,4851.0054,N,00031.5016,W,2,12,0.5,80.8,M,46.3,M,0,*64
$GNRMC,172927.00,A,4851.0054,N,00031.5015,W,0.0140,0.0000,040526,0.0,,D*7B
$GNGGA,172927.00,4851.0054,N,00031.5015,W,2,12,0.5,80.7,M,46.3,M,0,*69
$GNRMC,172928.00,A,4851.0054,N,00031.5015,W,0.0130,0.0000,040526,0.0,,D*73
$GNGGA,172928.00,4851.0054,N,00031.5015,W,2,12,0.5,80.7,M,46.3,M,0,*66
$GNRMC,172929.00,A,4851.0054,N,00031.5015,W,0.0280,0.0000,040526,0.0,,D*7A
$GNGGA,172929.00,4851.0054,N,00031.5015,W,2,12,0.5,80.7,M,46.3,M,0,*67
$GNRMC,172930.00,A,4851.0054,N,00031.5015,W,0.0140,0.0000,040526,0.0,,D*7D
$GNGGA,172930.00,4851.0054,N,00031.5015,W,2,12,0.5,80.6,M,46.3,M,0,*6E
$GNRMC,172931.00,A,4851.0054,N,00031.5014,W,0.0030,0.0000,040526,0.0,,D*7B
$GNGGA,172931.00,4851.0054,N,00031.5014,W,2,12,0.5,80.5,M,46.3,M,0,*6D
$GNRMC,172932.00,A,4851.0054,N,00031.5014,W,0.0230,0.0000,040526,0.0,,D*7A
$GNGGA,172932.00,4851.0054,N,00031.5014,W,2,12,0.5,80.5,M,46.3,M,0,*6E
$GNRMC,172933.00,A,4851.0054,N,00031.5014,W,0.0150,0.0000,040526,0.0,,D*7E
$GNGGA,172933.00,4851.0054,N,00031.5014,W,2,12,0.5,80.5,M,46.3,M,0,*6F
$GNRMC,172934.00,A,4851.0054,N,00031.5014,W,0.0300,0.0000,040526,0.0,,D*7E
$GNGGA,172934.00,4851.0054,N,00031.5014,W,2,12,0.5,80.4,M,46.3,M,0,*69
$GNRMC,172935.00,A,4851.0054,N,00031.5014,W,0.0560,0.0000,040526,0.0,,D*7F
$GNGGA,172935.00,4851.0054,N,00031.5014,W,2,12,0.5,80.4,M,46.3,M,0,*68
$GNRMC,172936.00,A,4851.0054,N,00031.5014,W,0.0150,0.0000,040526,0.0,,D*7B
$GNGGA,172936.00,4851.0054,N,00031.5014,W,2,12,0.5,80.3,M,46.3,M,0,*6C
$GNRMC,172937.00,A,4851.0054,N,00031.5014,W,0.0170,0.0000,040526,0.0,,D*78
$GNGGA,172937.00,4851.0054,N,00031.5014,W,2,12,0.5,80.3,M,46.3,M,0,*6D
$GNRMC,172938.00,A,4851.0054,N,00031.5014,W,0.0380,0.0000,040526,0.0,,D*7A
$GNGGA,172938.00,4851.0054,N,00031.5014,W,2,12,0.5,80.3,M,46.3,M,0,*62
$GNRMC,172939.00,A,4851.0054,N,00031.5013,W,0.0150,0.0000,040526,0.0,,D*73
$GNGGA,172939.00,4851.0054,N,00031.5013,W,2,12,0.5,80.2,M,46.3,M,0,*65
$GNRMC,172940.00,A,4851.0055,N,00031.5013,W,0.0170,0.0000,040526,0.0,,D*7E
$GNGGA,172940.00,4851.0055,N,00031.5013,W,2,12,0.5,80.1,M,46.3,M,0,*69
$GNRMC,172941.00,A,4851.0055,N,00031.5013,W,0.0110,0.0000,040526,0.0,,D*79
$GNGGA,172941.00,4851.0055,N,00031.5013,W,2,12,0.5,80.1,M,46.3,M,0,*68
$GNRMC,172942.00,A,4851.0055,N,00031.5013,W,0.0070,0.0000,040526,0.0,,D*7D
$GNGGA,172942.00,4851.0055,N,00031.5013,W,2,12,0.5,80.1,M,46.3,M,0,*6B
$GNRMC,172943.00,A,4851.0055,N,00031.5013,W,0.0210,0.0000,040526,0.0,,D*78
$GNGGA,172943.00,4851.0055,N,00031.5013,W,2,12,0.5,80.0,M,46.3,M,0,*6B
$GNRMC,172944.00,A,4851.0055,N,00031.5013,W,0.0140,0.0000,040526,0.0,,D*79
$GNGGA,172944.00,4851.0055,N,00031.5013,W,2,12,0.5,80.0,M,46.3,M,0,*6C
$GNRMC,172945.00,A,4851.0055,N,00031.5013,W,0.0330,0.0000,040526,0.0,,D*7D
$GNGGA,172945.00,4851.0055,N,00031.5013,W,2,12,0.5,80.0,M,46.3,M,0,*6D
$GNRMC,172946.00,A,4851.0055,N,00031.5013,W,0.0310,0.0000,040526,0.0,,D*7C
$GNGGA,172946.00,4851.0055,N,00031.5013,W,2,12,0.5,80.0,M,46.3,M,0,*6E
$GNRMC,172947.00,A,4851.0055,N,00031.5013,W,0.0140,0.0000,040526,0.0,,D*7A
$GNGGA,172947.00,4851.0055,N,00031.5013,W,2,12,0.5,80.1,M,46.3,M,0,*6E
$GNRMC,172948.00,A,4851.0056,N,00031.5013,W,0.0090,0.0000,040526,0.0,,D*7A
$GNGGA,172948.00,4851.0056,N,00031.5013,W,2,12,0.5,80.1,M,46.3,M,0,*62
$GNRMC,172949.00,A,4851.0056,N,00031.5012,W,0.0430,0.0000,040526,0.0,,D*74
$GNGGA,172949.00,4851.0056,N,00031.5012,W,2,12,0.5,80.1,M,46.3,M,0,*62
$GNRMC,172950.00,A,4851.0056,N,00031.5012,W,0.0260,0.0000,040526,0.0,,D*7F
$GNGGA,172950.00,4851.0056,N,00031.5012,W,2,12,0.6,80.1,M,46.3,M,0,*69
$GNRMC,172951.00,A,4851.0056,N,00031.5012,W,0.0190,0.0000,040526,0.0,,D*72
$GNGGA,172951.00,4851.0056,N,00031.5012,W,2,12,0.5,80.0,M,46.3,M,0,*6A
$GNRMC,172952.00,A,4851.0055,N,00031.5012,W,0.0110,0.0000,040526,0.0,,D*7A
$GNGGA,172952.00,4851.0055,N,00031.5012,W,2,12,0.5,80.0,M,46.3,M,0,*6A
$GNRMC,172953.00,A,4851.0055,N,00031.5012,W,0.0370,0.0000,040526,0.0,,D*7F
$GNGGA,172953.00,4851.0055,N,00031.5012,W,2,12,0.5,80.0,M,46.3,M,0,*6B
$GNRMC,172954.00,A,4851.0055,N,00031.5012,W,0.0330,0.0000,040526,0.0,,D*7C
$GNGGA,172954.00,4851.0055,N,00031.5012,W,2,12,0.5,79.9,M,46.3,M,0,*63
$GNRMC,172955.00,A,4851.0055,N,00031.5012,W,0.0120,0.0000,040526,0.0,,D*7E
$GNGGA,172955.00,4851.0055,N,00031.5012,W,2,12,0.5,80.0,M,46.3,M,0,*6D
$GNRMC,172956.00,A,4851.0055,N,00031.5012,W,0.0140,0.0000,040526,0.0,,D*7B
$GNGGA,172956.00,4851.0055,N,00031.5012,W,2,12,0.5,80.0,M,46.3,M,0,*6E
$GNRMC,172957.00,A,4851.0055,N,00031.5012,W,0.0070,0.0000,040526,0.0,,D*78
$GNGGA,172957.00,4851.0055,N,00031.5012,W,2,12,0.5,80.0,M,46.3,M,0,*6F
$GNRMC,172958.00,A,4851.0055,N,00031.5012,W,0.0040,0.0000,040526,0.0,,D*74
$GNGGA,172958.00,4851.0055,N,00031.5012,W,2,12,0.5,79.9,M,46.3,M,0,*6F
$GNRMC,172959.00,A,4851.0056,N,00031.5012,W,0.0230,0.0000,040526,0.0,,D*73
$GNGGA,172959.00,4851.0056,N,00031.5012,W,2,12,0.5,79.9,M,46.3,M,0,*6D
$GNRMC,173000.00,A,4851.0056,N,00031.5012,W,0.0130,0.0000,040526,0.0,,D*74
$GNGGA,173000.00,4851.0056,N,00031.5012,W,2,12,0.5,79.9,M,46.3,M,0,*69
$GNRMC,173001.00,A,4851.0056,N,00031.5012,W,0.0230,0.0000,040526,0.0,,D*76
$GNGGA,173001.00,4851.0056,N,00031.5012,W,2,12,0.5,79.9,M,46.3,M,0,*68
$GNRMC,173002.00,A,4851.0056,N,00031.5012,W,0.0090,0.0000,040526,0.0,,D*7D
$GNGGA,173002.00,4851.0056,N,00031.5012,W,2,12,0.5,79.9,M,46.3,M,0,*6B
$GNRMC,173003.00,A,4851.0056,N,00031.5012,W,0.0160,0.0000,040526,0.0,,D*72
$GNGGA,173003.00,4851.0056,N,00031.5012,W,2,12,0.5,79.9,M,46.3,M,0,*6A
$GNRMC,173004.00,A,4851.0056,N,00031.5012,W,0.0030,0.0000,040526,0.0,,D*71
$GNGGA,173004.00,4851.0056,N,00031.5012,W,2,12,0.5,79.9,M,46.3,M,0,*6D
$GNRMC,173005.00,A,4851.0056,N,00031.5012,W,0.0120,0.0000,040526,0.0,,D*70
$GNGGA,173005.00,4851.0056,N,00031.5012,W,2,12,0.5,79.9,M,46.3,M,0,*6C
$GNRMC,173006.00,A,4851.0056,N,00031.5012,W,0.0150,0.0000,040526,0.0,,D*74
$GNGGA,173006.00,4851.0056,N,00031.5012,W,2,12,0.5,79.9,M,46.3,M,0,*6F
$GNRMC,173007.00,A,4851.0056,N,00031.5012,W,0.0100,0.0000,040526,0.0,,D*70
$GNGGA,173007.00,4851.0056,N,00031.5012,W,2,12,0.5,79.8,M,46.3,M,0,*6F
$GNGGA,173008.00,4851.0056,N,00031.5012,W,2,12,0.5,79.8,M,46.3,M,0,*60
$GNRMC,173008.00,A,4851.0056,N,00031.5012,W,0.0020,0.0000,040526,0.0,,D*7C
$GNRMC,173009.00,A,4851.0056,N,00031.5012,W,0.0120,0.0000,040526,0.0,,D*7C
$GNGGA,173009.00,4851.0056,N,00031.5012,W,2,12,0.5,79.8,M,46.3,M,0,*61
$GNRMC,173010.00,A,4851.0056,N,00031.5011,W,0.0220,0.0000,040526,0.0,,D*74
$GNGGA,173010.00,4851.0056,N,00031.5011,W,2,12,0.5,79.7,M,46.3,M,0,*65
$GNRMC,173011.00,A,4851.0056,N,00031.5011,W,0.0910,0.0000,040526,0.0,,D*7D
$GNGGA,173011.00,4851.0056,N,00031.5011,W,2,12,0.5,79.7,M,46.3,M,0,*64
$GNRMC,173012.00,A,4851.0056,N,00031.5010,W,0.1100,0.0000,040526,0.0,,D*77
$GNGGA,173012.00,4851.0056,N,00031.5010,W,2,12,0.5,79.6,M,46.3,M,0,*67
$GNRMC,173013.00,A,4851.0056,N,00031.5009,W,0.2870,0.0000,040526,0.0,,D*73
$GNGGA,173013.00,4851.0056,N,00031.5009,W,2,12,0.5,79.6,M,46.3,M,0,*6E
$GNRMC,173014.00,A,4851.0056,N,00031.5006,W,0.5490,89.7700,040526,0.0,,D*4F
$GNGGA,173014.00,4851.0056,N,00031.5006,W,2,12,0.5,79.6,M,46.3,M,0,*66
$GNRMC,173015.00,A,4851.0056,N,00031.5003,W,0.7990,97.4400,040526,0.0,,D*4B
$GNGGA,173015.00,4851.0056,N,00031.5003,W,2,12,0.5,79.6,M,46.3,M,0,*62
$GNRMC,173016.00,A,4851.0056,N,00031.4999,W,1.1080,93.8400,040526,0.0,,D*44
$GNGGA,173016.00,4851.0056,N,00031.4999,W,2,12,0.5,79.6,M,46.3,M,0,*6A
$GNRMC,173017.00,A,4851.0056,N,00031.4993,W,1.4020,94.9000,040526,0.0,,D*42
$GNGGA,173017.00,4851.0056,N,00031.4993,W,2,12,0.5,79.7,M,46.3,M,0,*60
$GNRMC,173018.00,A,4851.0055,N,00031.4986,W,1.8360,94.9900,040526,0.0,,D*48
$GNGGA,173018.00,4851.0055,N,00031.4986,W,2,12,0.5,79.9,M,46.3,M,0,*66
$GNRMC,173019.00,A,4851.0054,N,00031.4977,W,2.1210,93.7600,040526,0.0,,D*4C
$GNGGA,173019.00,4851.0054,N,00031.4977,W,2,12,0.5,79.9,M,46.3,M,0,*68
$GNRMC,173020.00,A,4851.0054,N,00031.4968,W,2.2870,93.4100,040526,0.0,,D*43
$GNGGA,173020.00,4851.0054,N,00031.4968,W,2,12,0.5,80.2,M,46.3,M,0,*61
$GNRMC,173021.00,A,4851.0053,N,00031.4958,W,2.4720,93.8100,040526,0.0,,D*46
$GNGGA,173021.00,4851.0053,N,00031.4958,W,2,12,0.5,80.2,M,46.3,M,0,*64
$GNRMC,173022.00,A,4851.0052,N,00031.4947,W,2.6280,96.4900,040526,0.0,,D*46
$GNGGA,173022.00,4851.0052,N,00031.4947,W,2,12,0.6,80.3,M,46.3,M,0,*6A
$GNRMC,173023.00,A,4851.0051,N,00031.4936,W,2.7250,95.2600,040526,0.0,,D*44
$GNGGA,173023.00,4851.0051,N,00031.4936,W,2,12,0.5,80.5,M,46.3,M,0,*6B
$GNRMC,173024.00,A,4851.0050,N,00031.4924,W,2.7410,96.4400,040526,0.0,,D*44
$GNGGA,173024.00,4851.0050,N,00031.4924,W,2,12,0.5,80.4,M,46.3,M,0,*6F
$GNRMC,173025.00,A,4851.0049,N,00031.4912,W,2.9320,97.0600,040526,0.0,,D*45
$GNGGA,173025.00,4851.0049,N,00031.4912,W,2,12,0.5,80.5,M,46.3,M,0,*62
$GNRMC,173026.00,A,4851.0048,N,00031.4899,W,3.0560,95.3000,040526,0.0,,D*48
$GNGGA,173026.00,4851.0048,N,00031.4899,W,2,12,0.5,80.4,M,46.3,M,0,*63
$GNRMC,173027.00,A,4851.0047,N,00031.4886,W,3.1510,95.2200,040526,0.0,,D*4D
$GNGGA,173027.00,4851.0047,N,00031.4886,W,2,12,0.5,80.4,M,46.3,M,0,*63
$GNRMC,173028.00,A,4851.0046,N,00031.4872,W,3.2770,95.5400,040526,0.0,,D*4E
$GNGGA,173028.00,4851.0046,N,00031.4872,W,2,12,0.5,80.4,M,46.3,M,0,*66
$GNRMC,173029.00,A,4851.0045,N,00031.4858,W,3.2430,93.9700,040526,0.0,,D*4A
$GNGGA,173029.00,4851.0045,N,00031.4858,W,2,12,0.5,80.3,M,46.3,M,0,*6B
$GNRMC,173030.00,A,4851.0045,N,00031.4844,W,3.2480,92.5400,040526,0.0,,D*4A
$GNGGA,173030.00,4851.0045,N,00031.4844,W,2,12,0.5,80.1,M,46.3,M,0,*6C
$GNRMC,173031.00,A,4851.0044,N,00031.4830,W,3.3020,93.4800,040526,0.0,,D*4A
$GNGGA,173031.00,4851.0044,N,00031.4830,W,2,12,0.5,80.1,M,46.3,M,0,*6F
$GNRMC,173032.00,A,4851.0043,N,00031.4816,W,3.4210,94.3500,040526,0.0,,D*41
$GNGGA,173032.00,4851.0043,N,00031.4816,W,2,12,0.5,80.0,M,46.3,M,0,*6E
$GNRMC,173033.00,A,4851.0042,N,00031.4801,W,3.4800,95.5000,040526,0.0,,D*4E
$GNGGA,173033.00,4851.0042,N,00031.4801,W,2,12,0.5,80.1,M,46.3,M,0,*69
$GNRMC,173034.00,A,4851.0041,N,00031.4786,W,3.5230,95.9800,040526,0.0,,D*46
$GNGGA,173034.00,4851.0041,N,00031.4786,W,2,12,0.5,80.2,M,46.3,M,0,*6E
$GNRMC,173035.00,A,4851.0040,N,00031.4772,W,3.4470,94.5600,040526,0.0,,D*4D
$GNGGA,173035.00,4851.0040,N,00031.4772,W,2,12,0.5,80.2,M,46.3,M,0,*65
$GNRMC,173036.00,A,4851.0039,N,00031.4757,W,3.5310,95.0400,040526,0.0,,D*41
$GNGGA,173036.00,4851.0039,N,00031.4757,W,2,12,0.5,80.2,M,46.3,M,0,*6F
$GNRMC,173037.00,A,4851.0038,N,00031.4741,W,3.6550,96.4000,040526,0.0,,D*44
$GNGGA,173037.00,4851.0038,N,00031.4741,W,2,12,0.5,80.2,M,46.3,M,0,*68
$GNRMC,173038.00,A,4851.0037,N,00031.4726,W,3.5440,95.3900,040526,0.0,,D*4B
$GNGGA,173038.00,4851.0037,N,00031.4726,W,2,12,0.5,80.3,M,46.3,M,0,*68
$GNRMC,173039.00,A,4851.0036,N,00031.4710,W,3.6690,94.0900,040526,0.0,,D*40
$GNGGA,173039.00,4851.0036,N,00031.4710,W,2,12,0.5,80.3,M,46.3,M,0,*6D
$GNRMC,173040.00,A,4851.0036,N,00031.4694,W,3.6510,93.7900,040526,0.0,,D*48
$GNGGA,173040.00,4851.0036,N,00031.4694,W,2,12,0.5,80.3,M,46.3,M,0,*6E
$GNRMC,173041.00,A,4851.0035,N,00031.4678,W,3.7900,94.9600,040526,0.0,,D*42
$GNGGA,173041.00,4851.0035,N,00031.4678,W,2,12,0.5,80.1,M,46.3,M,0,*6C
$GNRMC,173042.00,A,4851.0035,N,00031.4662,W,3.7230,93.2800,040526,0.0,,D*40
$GNGGA,173042.00,4851.0035,N,00031.4662,W,2,12,0.5,80.2,M,46.3,M,0,*67
$GNRMC,173043.00,A,4851.0035,N,00031.4646,W,3.6810,92.1300,040526,0.0,,D*47
$GNGGA,173043.00,4851.0035,N,00031.4646,W,2,12,0.5,80.0,M,46.3,M,0,*62
$GNRMC,173044.00,A,4851.0034,N,00031.4630,W,3.9540,94.2800,040526,0.0,,D*49
$GNGGA,173044.00,4851.0034,N,00031.4630,W,2,12,0.5,80.0,M,46.3,M,0,*65
$GNRMC,173045.00,A,4851.0033,N,00031.4612,W,4.1280,94.3200,040526,0.0,,D*40
$GNGGA,173045.00,4851.0033,N,00031.4612,W,2,12,0.5,80.0,M,46.3,M,0,*63
$GNRMC,173046.00,A,4851.0032,N,00031.4593,W,4.3440,95.4700,040526,0.0,,D*43
$GNGGA,173046.00,4851.0032,N,00031.4593,W,2,12,0.6,80.0,M,46.3,M,0,*68
$GNRMC,173047.00,A,4851.0030,N,00031.4574,W,4.5120,95.8400,040526,0.0,,D*43
$GNGGA,173047.00,4851.0030,N,00031.4574,W,2,12,0.6,80.1,M,46.3,M,0,*63
$GNRMC,173048.00,A,4851.0029,N,00031.4555,W,4.5960,94.9200,040526,0.0,,D*4D
$GNGGA,173048.00,4851.0029,N,00031.4555,W,2,12,0.6,80.2,M,46.3,M,0,*64
$GNRMC,173049.00,A,4851.0027,N,00031.4535,W,4.6270,95.7600,040526,0.0,,D*46
$GNGGA,173049.00,4851.0027,N,00031.4535,W,2,12,0.5,80.2,M,46.3,M,0,*6E
$GNRMC,173050.00,A,4851.0026,N,00031.4516,W,4.6020,95.7700,040526,0.0,,D*48
$GNGGA,173050.00,4851.0026,N,00031.4516,W,2,12,0.5,80.2,M,46.3,M,0,*66
$GNRMC,173051.00,A,4851.0025,N,00031.4496,W,4.5950,94.8700,040526,0.0,,D*40
$GNGGA,173051.00,4851.0025,N,00031.4496,W,2,12,0.5,80.2,M,46.3,M,0,*6D
$GNRMC,173052.00,A,4851.0024,N,00031.4477,W,4.5010,95.8900,040526,0.0,,D*4F
$GNGGA,173052.00,4851.0024,N,00031.4477,W,2,12,0.5,80.1,M,46.3,M,0,*63
$GNRMC,173053.00,A,4851.0023,N,00031.4458,W,4.5190,95.7800,040526,0.0,,D*43
$GNGGA,173053.00,4851.0023,N,00031.4458,W,2,12,0.5,80.1,M,46.3,M,0,*68
$GNRMC,173054.00,A,4851.0021,N,00031.4439,W,4.5960,96.2000,040526,0.0,,D*48
$GNGGA,173054.00,4851.0021,N,00031.4439,W,2,12,0.5,80.2,M,46.3,M,0,*69
$GNRMC,173055.00,A,4851.0020,N,00031.4420,W,4.5040,94.9800,040526,0.0,,D*4A
$GNGGA,173055.00,4851.0020,N,00031.4420,W,2,12,0.5,80.1,M,46.3,M,0,*62
$GNRMC,173056.00,A,4851.0019,N,00031.4402,W,4.3010,95.2800,040526,0.0,,D*4A
$GNGGA,173056.00,4851.0019,N,00031.4402,W,2,12,0.5,80.2,M,46.3,M,0,*68
$GNRMC,173057.00,A,4851.0018,N,00031.4384,W,4.1860,96.4100,040526,0.0,,D*42
$GNGGA,173057.00,4851.0018,N,00031.4384,W,2,12,0.5,80.3,M,46.3,M,0,*60
$GNRMC,173058.00,A,4851.0017,N,00031.4367,W,4.1280,95.8700,040526,0.0,,D*42
$GNGGA,173058.00,4851.0017,N,00031.4367,W,2,12,0.5,80.4,M,46.3,M,0,*6A
$GNRMC,173059.00,A,4851.0016,N,00031.4350,W,4.1890,96.5900,040526,0.0,,D*4D
$GNGGA,173059.00,4851.0016,N,00031.4350,W,2,12,0.5,80.5,M,46.3,M,0,*6F
$GNRMC,173100.00,A,4851.0015,N,00031.4333,W,4.1090,96.4100,040526,0.0,,D*47
$GNGGA,173100.00,4851.0015,N,00031.4333,W,2,12,0.5,80.7,M,46.3,M,0,*66
$GNRMC,173101.00,A,4851.0013,N,00031.4316,W,4.0300,97.0700,040526,0.0,,D*4F
$GNGGA,173101.00,4851.0013,N,00031.4316,W,2,12,0.5,80.9,M,46.3,M,0,*68
$GNRMC,173102.00,A,4851.0012,N,00031.4299,W,4.0400,98.1600,040526,0.0,,D*43
$GNGGA,173102.00,4851.0012,N,00031.4299,W,2,12,0.5,81.0,M,46.3,M,0,*64
$GNRMC,173103.00,A,4851.0010,N,00031.4282,W,3.9840,96.9200,040526,0.0,,D*4E
$GNGGA,173103.00,4851.0010,N,00031.4282,W,2,12,0.5,81.1,M,46.3,M,0,*6C
$GNRMC,173104.00,A,4851.0009,N,00031.4266,W,3.8670,96.7900,040526,0.0,,D*42
$GNGGA,173104.00,4851.0009,N,00031.4266,W,2,12,0.5,81.2,M,46.3,M,0,*6A
$GNRMC,173105.00,A,4851.0007,N,00031.4249,W,3.9090,95.9700,040526,0.0,,D*4A
$GNGGA,173105.00,4851.0007,N,00031.4249,W,2,12,0.5,81.3,M,46.3,M,0,*69
$GNRMC,173106.00,A,4851.0006,N,00031.4233,W,3.8800,96.3700,040526,0.0,,D*4C
$GNGGA,173106.00,4851.0006,N,00031.4233,W,2,12,0.5,81.5,M,46.3,M,0,*60
$GNRMC,173107.00,A,4851.0004,N,00031.4217,W,3.8750,97.9500,040526,0.0,,D*4A
$GNGGA,173107.00,4851.0004,N,00031.4217,W,2,12,0.5,81.6,M,46.3,M,0,*66
$GNRMC,173108.00,A,4851.0003,N,00031.4200,W,3.7800,95.2000,040526,0.0,,D*4D
$GNGGA,173108.00,4851.0003,N,00031.4200,W,2,12,0.5,81.6,M,46.3,M,0,*68
$GNRMC,173109.00,A,4851.0002,N,00031.4185,W,3.7830,96.9300,040526,0.0,,D*4B
$GNGGA,173109.00,4851.0002,N,00031.4185,W,2,12,0.5,81.8,M,46.3,M,0,*68
$GNRMC,173110.00,A,4851.0000,N,00031.4169,W,3.7450,98.7300,040526,0.0,,D*49
$GNGGA,173110.00,4851.0000,N,00031.4169,W,2,12,0.5,81.8,M,46.3,M,0,*60
$GNRMC,173111.00,A,4850.9999,N,00031.4154,W,3.6340,94.5300,040526,0.0,,D*4E
$GNGGA,173111.00,4850.9999,N,00031.4154,W,2,12,0.5,81.8,M,46.3,M,0,*6E
$GNRMC,173112.00,A,4850.9998,N,00031.4139,W,3.5390,96.0300,040526,0.0,,D*4E
$GNGGA,173112.00,4850.9998,N,00031.4139,W,2,12,0.5,81.8,M,46.3,M,0,*67
$GNRMC,173113.00,A,4850.9997,N,00031.4123,W,3.7030,96.9400,040526,0.0,,D*4E
$GNGGA,173113.00,4850.9997,N,00031.4123,W,2,12,0.5,81.8,M,46.3,M,0,*62
$GNRMC,173114.00,A,4850.9995,N,00031.4108,W,3.5970,96.4000,040526,0.0,,D*44
$GNGGA,173114.00,4850.9995,N,00031.4108,W,2,12,0.5,81.9,M,46.3,M,0,*6F
$GNRMC,173115.00,A,4850.9994,N,00031.4092,W,3.5280,95.6900,040526,0.0,,D*4A
$GNGGA,173115.00,4850.9994,N,00031.4092,W,2,12,0.5,82.0,M,46.3,M,0,*67
$GNRMC,173116.00,A,4850.9993,N,00031.4078,W,3.4740,98.5500,040526,0.0,,D*40
$GNGGA,173116.00,4850.9993,N,00031.4078,W,2,12,0.5,81.9,M,46.3,M,0,*6D
$GNRMC,173117.00,A,4850.9992,N,00031.4064,W,3.3720,96.7600,040526,0.0,,D*43
$GNGGA,173117.00,4850.9992,N,00031.4064,W,2,12,0.5,81.8,M,46.3,M,0,*61
$GNRMC,173118.00,A,4850.9991,N,00031.4049,W,3.4870,97.4600,040526,0.0,,D*4F
$GNGGA,173118.00,4850.9991,N,00031.4049,W,2,12,0.5,81.8,M,46.3,M,0,*62
$GNRMC,173119.00,A,4850.9990,N,00031.4035,W,3.4110,98.2900,040526,0.0,,D*4D
$GNGGA,173119.00,4850.9990,N,00031.4035,W,2,12,0.5,81.7,M,46.3,M,0,*66
$GNRMC,173120.00,A,4850.9989,N,00031.4020,W,3.3930,96.2500,040526,0.0,,D*44
$GNGGA,173120.00,4850.9989,N,00031.4020,W,2,12,0.5,81.6,M,46.3,M,0,*61
$GNRMC,173121.00,A,4850.9988,N,00031.4006,W,3.3520,99.3900,040526,0.0,,D*4F
$GNGGA,173121.00,4850.9988,N,00031.4006,W,2,12,0.5,81.3,M,46.3,M,0,*60
$GNRMC,173122.00,A,4850.9987,N,00031.3993,W,3.2270,97.4900,040526,0.0,,D*4B
$GNGGA,173122.00,4850.9987,N,00031.3993,W,2,12,0.5,81.2,M,46.3,M,0,*6F
$GNRMC,173123.00,A,4850.9986,N,00031.3979,W,3.2560,94.2000,040526,0.0,,D*45
$GNGGA,173123.00,4850.9986,N,00031.3979,W,2,12,0.5,81.2,M,46.3,M,0,*6B
$GNRMC,173124.00,A,4850.9984,N,00031.3966,W,3.3090,101.7300,040526,0.0,,D*7E
$GNGGA,173124.00,4850.9984,N,00031.3966,W,2,12,0.5,81.2,M,46.3,M,0,*60
$GNRMC,173125.00,A,4850.9983,N,00031.3952,W,3.1150,95.6200,040526,0.0,,D*4C
$GNGGA,173125.00,4850.9983,N,00031.3952,W,2,12,0.5,81.2,M,46.3,M,0,*61
$GNRMC,173126.00,A,4850.9982,N,00031.3939,W,3.1570,95.4600,040526,0.0,,D*43
$GNGGA,173126.00,4850.9982,N,00031.3939,W,2,12,0.5,81.2,M,46.3,M,0,*6E
$GNRMC,173127.00,A,4850.9981,N,00031.3926,W,3.1500,99.0100,040526,0.0,,D*47
$GNGGA,173127.00,4850.9981,N,00031.3926,W,2,12,0.5,81.1,M,46.3,M,0,*61
$GNRMC,173128.00,A,4850.9979,N,00031.3913,W,3.1680,97.3000,040526,0.0,,D*4E
$GNGGA,173128.00,4850.9979,N,00031.3913,W,2,12,0.5,81.3,M,46.3,M,0,*6D
$GNRMC,173129.00,A,4850.9979,N,00031.3899,W,3.0600,92.4300,040526,0.0,,D*44
$GNGGA,173129.00,4850.9979,N,00031.3899,W,2,12,0.5,81.5,M,46.3,M,0,*69
$GNRMC,173130.00,A,4850.9978,N,00031.3887,W,3.1130,98.9200,040526,0.0,,D*41
$GNGGA,173130.00,4850.9978,N,00031.3887,W,2,12,0.5,81.4,M,46.3,M,0,*6E
$GNRMC,173131.00,A,4850.9976,N,00031.3874,W,3.0390,101.5600,040526,0.0,,D*72
$GNGGA,173131.00,4850.9976,N,00031.3874,W,2,12,0.5,81.3,M,46.3,M,0,*6A
$GNRMC,173132.00,A,4850.9975,N,00031.3861,W,3.0430,96.7100,040526,0.0,,D*41
$GNGGA,173132.00,4850.9975,N,00031.3861,W,2,12,0.5,81.3,M,46.3,M,0,*6E
$GNRMC,173133.00,A,4850.9973,N,00031.3848,W,2.9700,96.1100,040526,0.0,,D*43
$GNGGA,173133.00,4850.9973,N,00031.3848,W,2,12,0.5,81.6,M,46.3,M,0,*67
$GNRMC,173134.00,A,4850.9972,N,00031.3837,W,2.9420,98.5700,040526,0.0,,D*40
$GNGGA,173134.00,4850.9972,N,00031.3837,W,2,12,0.5,81.7,M,46.3,M,0,*68
$GNRMC,173135.00,A,4850.9971,N,00031.3824,W,2.7800,97.2500,040526,0.0,,D*4A
$GNGGA,173135.00,4850.9971,N,00031.3824,W,2,12,0.5,81.6,M,46.3,M,0,*69
$GNRMC,173136.00,A,4850.9969,N,00031.3812,W,2.8840,101.4600,040526,0.0,,D*75
$GNGGA,173136.00,4850.9969,N,00031.3812,W,2,12,0.5,81.7,M,46.3,M,0,*67
$GNRMC,173137.00,A,4850.9968,N,00031.3800,W,2.8860,97.2200,040526,0.0,,D*48
$GNGGA,173137.00,4850.9968,N,00031.3800,W,2,12,0.5,81.6,M,46.3,M,0,*65
$GNRMC,173138.00,A,4850.9967,N,00031.3789,W,2.7060,99.4200,040526,0.0,,D*49
$GNGGA,173138.00,4850.9967,N,00031.3789,W,2,12,0.5,81.5,M,46.3,M,0,*68
$GNRMC,173139.00,A,4850.9966,N,00031.3777,W,2.7430,95.5500,040526,0.0,,D*43
$GNGGA,173139.00,4850.9966,N,00031.3777,W,2,12,0.5,81.5,M,46.3,M,0,*69
$GNRMC,173140.00,A,4850.9965,N,00031.3766,W,2.5640,97.8100,040526,0.0,,D*42
$GNGGA,173140.00,4850.9965,N,00031.3766,W,2,12,0.5,81.4,M,46.3,M,0,*65
$GNRMC,173141.00,A,4850.9965,N,00031.3754,W,2.5940,98.2300,040526,0.0,,D*4A
$GNGGA,173141.00,4850.9965,N,00031.3754,W,2,12,0.5,81.6,M,46.3,M,0,*67
$GNRMC,173142.00,A,4850.9964,N,00031.3743,W,2.5970,97.5700,040526,0.0,,D*41
$GNGGA,173142.00,4850.9964,N,00031.3743,W,2,12,0.5,81.5,M,46.3,M,0,*60
$GNRMC,173143.00,A,4850.9964,N,00031.3732,W,2.5260,95.6100,040526,0.0,,D*4B
$GNGGA,173143.00,4850.9964,N,00031.3732,W,2,12,0.5,81.4,M,46.3,M,0,*66
$GNRMC,173144.00,A,4850.9963,N,00031.3721,W,2.4580,96.6200,040526,0.0,,D*41
$GNGGA,173144.00,4850.9963,N,00031.3721,W,2,12,0.5,81.2,M,46.3,M,0,*62
$GNRMC,173145.00,A,4850.9963,N,00031.3711,W,2.3390,95.8800,040526,0.0,,D*44
$GNGGA,173145.00,4850.9963,N,00031.3711,W,2,12,0.5,81.2,M,46.3,M,0,*60
$GNRMC,173146.00,A,4850.9962,N,00031.3701,W,2.3380,96.0600,040526,0.0,,D*43
$GNGGA,173146.00,4850.9962,N,00031.3701,W,2,12,0.5,81.2,M,46.3,M,0,*63
$GNRMC,173147.00,A,4850.9961,N,00031.3691,W,2.3370,95.8200,040526,0.0,,D*49
$GNGGA,173147.00,4850.9961,N,00031.3691,W,2,12,0.5,81.2,M,46.3,M,0,*69
$GNRMC,173148.00,A,4850.9961,N,00031.3681,W,2.2510,96.0500,040526,0.0,,D*4A
$GNGGA,173148.00,4850.9961,N,00031.3681,W,2,12,0.5,81.3,M,46.3,M,0,*66
$GNRMC,173149.00,A,4850.9960,N,00031.3671,W,2.2200,98.3200,040526,0.0,,D*49
$GNGGA,173149.00,4850.9960,N,00031.3671,W,2,12,0.5,81.3,M,46.3,M,0,*69
$GNRMC,173150.00,A,4850.9960,N,00031.3662,W,2.0930,95.8500,040526,0.0,,D*48
$GNGGA,173150.00,4850.9960,N,00031.3662,W,2,12,0.5,81.3,M,46.3,M,0,*63
$GNRMC,173151.00,A,4850.9959,N,00031.3653,W,2.0460,93.8300,040526,0.0,,D*49
$GNGGA,173151.00,4850.9959,N,00031.3653,W,2,12,0.5,81.3,M,46.3,M,0,*6A
$GNRMC,173152.00,A,4850.9959,N,00031.3645,W,1.9900,95.4400,040526,0.0,,D*41
$GNGGA,173152.00,4850.9959,N,00031.3645,W,2,12,0.5,81.4,M,46.3,M,0,*69
$GNRMC,173153.00,A,4850.9958,N,00031.3636,W,1.9340,93.9500,040526,0.0,,D*41
$GNGGA,173153.00,4850.9958,N,00031.3636,W,2,12,0.5,81.4,M,46.3,M,0,*6D
$GNRMC,173154.00,A,4850.9959,N,00031.3628,W,1.8580,87.8200,040526,0.0,,D*40
$GNGGA,173154.00,4850.9959,N,00031.3628,W,2,12,0.5,81.7,M,46.3,M,0,*67
$GNRMC,173155.00,A,4850.9958,N,00031.3620,W,1.8240,96.8800,040526,0.0,,D*49
$GNGGA,173155.00,4850.9958,N,00031.3620,W,2,12,0.5,81.8,M,46.3,M,0,*60
$GNRMC,173156.00,A,4850.9958,N,00031.3613,W,1.7290,96.4500,040526,0.0,,D*49
$GNGGA,173156.00,4850.9958,N,00031.3613,W,2,12,0.5,81.8,M,46.3,M,0,*63
$GNRMC,173157.00,A,4850.9957,N,00031.3605,W,1.8420,97.1100,040526,0.0,,D*42
$GNGGA,173157.00,4850.9957,N,00031.3605,W,2,12,0.5,81.9,M,46.3,M,0,*6B
$GNRMC,173158.00,A,4850.9957,N,00031.3597,W,2.0300,94.8700,040526,0.0,,D*47
$GNGGA,173158.00,4850.9957,N,00031.3597,W,2,12,0.5,82.0,M,46.3,M,0,*66
$GNRMC,173159.00,A,4850.9957,N,00031.3587,W,2.3940,95.2900,040526,0.0,,D*4F
$GNGGA,173159.00,4850.9957,N,00031.3587,W,2,12,0.5,82.0,M,46.3,M,0,*66
$GNRMC,173200.00,A,4850.9956,N,00031.3576,W,2.6490,96.0800,040526,0.0,,D*4A
$GNGGA,173200.00,4850.9956,N,00031.3576,W,2,12,0.5,82.1,M,46.3,M,0,*67
$GNRMC,173201.00,A,4850.9955,N,00031.3564,W,2.9530,95.0700,040526,0.0,,D*43
$GNGGA,173201.00,4850.9955,N,00031.3564,W,2,12,0.5,82.1,M,46.3,M,0,*66
$GNRMC,173202.00,A,4850.9955,N,00031.3551,W,3.1050,95.3000,040526,0.0,,D*48
$GNGGA,173202.00,4850.9955,N,00031.3551,W,2,12,0.5,82.1,M,46.3,M,0,*63
$GNRMC,173203.00,A,4850.9954,N,00031.3538,W,3.3370,95.3300,040526,0.0,,D*47
$GNGGA,173203.00,4850.9954,N,00031.3538,W,2,12,0.5,82.0,M,46.3,M,0,*6D
$GNRMC,173204.00,A,4850.9953,N,00031.3523,W,3.5110,95.1000,040526,0.0,,D*4E
$GNGGA,173204.00,4850.9953,N,00031.3523,W,2,12,0.5,81.7,M,46.3,M,0,*63
$GNRMC,173205.00,A,4850.9952,N,00031.3508,W,3.6870,95.2000,040526,0.0,,D*48
$GNGGA,173205.00,4850.9952,N,00031.3508,W,2,12,0.5,81.7,M,46.3,M,0,*6A
$GNRMC,173206.00,A,4850.9951,N,00031.3492,W,3.8010,94.4000,040526,0.0,,D*4D
$GNGGA,173206.00,4850.9951,N,00031.3492,W,2,12,0.5,81.7,M,46.3,M,0,*68
$GNRMC,173207.00,A,4850.9951,N,00031.3476,W,3.8440,94.4300,040526,0.0,,D*44
$GNGGA,173207.00,4850.9951,N,00031.3476,W,2,12,0.5,81.8,M,46.3,M,0,*6C
$GNRMC,173208.00,A,4850.9950,N,00031.3460,W,3.9740,94.3000,040526,0.0,,D*4B
$GNGGA,173208.00,4850.9950,N,00031.3460,W,2,12,0.5,81.7,M,46.3,M,0,*6A
$GNRMC,173209.00,A,4850.9949,N,00031.3443,W,4.0080,94.3400,040526,0.0,,D*42
$GNGGA,173209.00,4850.9949,N,00031.3443,W,2,12,0.5,81.7,M,46.3,M,0,*62
$GNRMC,173210.00,A,4850.9948,N,00031.3427,W,4.0920,93.2700,040526,0.0,,D*4F
$GNGGA,173210.00,4850.9948,N,00031.3427,W,2,12,0.5,81.7,M,46.3,M,0,*69
$GNRMC,173211.00,A,4850.9947,N,00031.3410,W,4.0860,95.2700,040526,0.0,,D*46
$GNGGA,173211.00,4850.9947,N,00031.3410,W,2,12,0.5,81.7,M,46.3,M,0,*63
$GNRMC,173212.00,A,4850.9946,N,00031.3393,W,4.2090,93.3900,040526,0.0,,D*44
$GNGGA,173212.00,4850.9946,N,00031.3393,W,2,12,0.5,81.6,M,46.3,M,0,*6C
$GNRMC,173213.00,A,4850.9945,N,00031.3375,W,4.2910,95.6200,040526,0.0,,D*47
$GNGGA,173213.00,4850.9945,N,00031.3375,W,2,12,0.5,81.7,M,46.3,M,0,*67
$GNRMC,173214.00,A,4850.9944,N,00031.3358,W,4.1790,94.2300,040526,0.0,,D*4F
$GNGGA,173214.00,4850.9944,N,00031.3358,W,2,12,0.5,81.8,M,46.3,M,0,*61
$GNRMC,173215.00,A,4850.9944,N,00031.3341,W,4.1360,93.7100,040526,0.0,,D*4D
$GNGGA,173215.00,4850.9944,N,00031.3341,W,2,12,0.5,81.9,M,46.3,M,0,*69
$GNRMC,173216.00,A,4850.9944,N,00031.3323,W,4.2570,93.9300,040526,0.0,,D*42
$GNGGA,173216.00,4850.9944,N,00031.3323,W,2,12,0.5,82.1,M,46.3,M,0,*65
$GNRMC,173217.00,A,4850.9943,N,00031.3306,W,4.1000,90.1500,040526,0.0,,D*4F
$GNGGA,173217.00,4850.9943,N,00031.3306,W,2,12,0.5,82.0,M,46.3,M,0,*65
$GNRMC,173218.00,A,4850.9943,N,00031.3289,W,4.0190,91.5800,040526,0.0,,D*47
$GNGGA,173218.00,4850.9943,N,00031.3289,W,2,12,0.5,82.0,M,46.3,M,0,*6C
$GNRMC,173219.00,A,4850.9943,N,00031.3272,W,3.9700,91.4300,040526,0.0,,D*49
$GNGGA,173219.00,4850.9943,N,00031.3272,W,2,12,0.5,82.0,M,46.3,M,0,*69
$GNRMC,173220.00,A,4850.9942,N,00031.3256,W,3.9720,92.4000,040526,0.0,,D*46
$GNGGA,173220.00,4850.9942,N,00031.3256,W,2,12,0.5,82.2,M,46.3,M,0,*66
$GNRMC,173221.00,A,4850.9941,N,00031.3240,W,3.7230,91.5400,040526,0.0,,D*4F
$GNGGA,173221.00,4850.9941,N,00031.3240,W,2,12,0.5,82.3,M,46.3,M,0,*62
$GNRMC,173222.00,A,4850.9941,N,00031.3225,W,3.6050,90.9600,040526,0.0,,D*45
$GNGGA,173222.00,4850.9941,N,00031.3225,W,2,12,0.5,82.3,M,46.3,M,0,*62
$GNRMC,173223.00,A,4850.9941,N,00031.3210,W,3.5280,91.1700,040526,0.0,,D*46
$GNGGA,173223.00,4850.9941,N,00031.3210,W,2,12,0.5,82.3,M,46.3,M,0,*65
$GNRMC,173224.00,A,4850.9941,N,00031.3196,W,3.4770,92.0100,040526,0.0,,D*43
$GNGGA,173224.00,4850.9941,N,00031.3196,W,2,12,0.5,82.7,M,46.3,M,0,*6B
$GNRMC,173225.00,A,4850.9941,N,00031.3181,W,3.3210,89.6000,040526,0.0,,D*4D
$GNGGA,173225.00,4850.9941,N,00031.3181,W,2,12,0.5,82.8,M,46.3,M,0,*63
$GNRMC,173226.00,A,4850.9941,N,00031.3167,W,3.3160,90.6800,040526,0.0,,D*42
$GNGGA,173226.00,4850.9941,N,00031.3167,W,2,12,0.5,82.9,M,46.3,M,0,*69
$GNRMC,173227.00,A,4850.9941,N,00031.3155,W,3.0040,92.0500,040526,0.0,,D*4B
$GNGGA,173227.00,4850.9941,N,00031.3155,W,2,12,0.5,83.1,M,46.3,M,0,*60
$GNRMC,173228.00,A,4850.9941,N,00031.3142,W,2.9420,91.0400,040526,0.0,,D*4A
$GNGGA,173228.00,4850.9941,N,00031.3142,W,2,12,0.5,83.1,M,46.3,M,0,*69
$GNRMC,173229.00,A,4850.9941,N,00031.3129,W,3.0940,90.0300,040526,0.0,,D*43
$GNGGA,173229.00,4850.9941,N,00031.3129,W,2,12,0.5,83.1,M,46.3,M,0,*65
$GNRMC,173230.00,A,4850.9942,N,00031.3116,W,2.8940,86.4400,040526,0.0,,D*49
$GNGGA,173230.00,4850.9942,N,00031.3116,W,2,12,0.5,83.0,M,46.3,M,0,*63
$GNRMC,173231.00,A,4850.9942,N,00031.3104,W,2.8130,88.0000,040526,0.0,,D*4A
$GNGGA,173231.00,4850.9942,N,00031.3104,W,2,12,0.5,83.0,M,46.3,M,0,*61
$GNRMC,173232.00,A,4850.9942,N,00031.3092,W,2.7920,91.5300,040526,0.0,,D*4F
$GNGGA,173232.00,4850.9942,N,00031.3092,W,2,12,0.5,83.0,M,46.3,M,0,*6C
$GNRMC,173233.00,A,4850.9943,N,00031.3081,W,2.6610,86.7300,040526,0.0,,D*44
$GNGGA,173233.00,4850.9943,N,00031.3081,W,2,12,0.5,83.1,M,46.3,M,0,*6F
$GNRMC,173234.00,A,4850.9943,N,00031.3069,W,2.6480,86.8900,040526,0.0,,D*4B
$GNGGA,173234.00,4850.9943,N,00031.3069,W,2,12,0.5,83.0,M,46.3,M,0,*6F
$GNRMC,173235.00,A,4850.9944,N,00031.3058,W,2.6280,86.2700,040526,0.0,,D*4D
$GNGGA,173235.00,4850.9944,N,00031.3058,W,2,12,0.5,83.0,M,46.3,M,0,*6B
$GNRMC,173236.00,A,4850.9944,N,00031.3047,W,2.4980,86.2700,040526,0.0,,D*49
$GNGGA,173236.00,4850.9944,N,00031.3047,W,2,12,0.5,83.1,M,46.3,M,0,*67
$GNRMC,173237.00,A,4850.9945,N,00031.3037,W,2.3890,86.9100,040526,0.0,,D*44
$GNGGA,173237.00,4850.9945,N,00031.3037,W,2,12,0.5,83.3,M,46.3,M,0,*62
$GNRMC,173238.00,A,4850.9946,N,00031.3027,W,2.2960,86.2300,040526,0.0,,D*4F
$GNGGA,173238.00,4850.9946,N,00031.3027,W,2,12,0.5,83.2,M,46.3,M,0,*6E
$GNRMC,173239.00,A,4850.9946,N,00031.3017,W,2.4450,90.4100,040526,0.0,,D*46
$GNGGA,173239.00,4850.9946,N,00031.3017,W,2,12,0.5,83.4,M,46.3,M,0,*6A
$GNRMC,173240.00,A,4850.9946,N,00031.3006,W,2.5340,87.9800,040526,0.0,,D*4D
$GNGGA,173240.00,4850.9946,N,00031.3006,W,2,12,0.5,83.4,M,46.3,M,0,*64
$GNRMC,173241.00,A,4850.9946,N,00031.2994,W,2.7590,87.7400,040526,0.0,,D*44
$GNGGA,173241.00,4850.9946,N,00031.2994,W,2,12,0.5,83.3,M,46.3,M,0,*61
$GNRMC,173242.00,A,4850.9946,N,00031.2982,W,2.8910,88.6100,040526,0.0,,D*40
$GNGGA,173242.00,4850.9946,N,00031.2982,W,2,12,0.5,83.3,M,46.3,M,0,*65
$GNRMC,173243.00,A,4850.9947,N,00031.2969,W,3.0840,86.0400,040526,0.0,,D*45
$GNGGA,173243.00,4850.9947,N,00031.2969,W,2,12,0.5,83.4,M,46.3,M,0,*67
$GNRMC,173244.00,A,4850.9948,N,00031.2956,W,3.2850,83.6100,040526,0.0,,D*44
$GNGGA,173244.00,4850.9948,N,00031.2956,W,2,12,0.5,83.5,M,46.3,M,0,*62
$GNRMC,173245.00,A,4850.9949,N,00031.2941,W,3.4620,86.0900,040526,0.0,,D*46
$GNGGA,173245.00,4850.9949,N,00031.2941,W,2,12,0.5,83.5,M,46.3,M,0,*64
$GNRMC,173246.00,A,4850.9949,N,00031.2926,W,3.5550,85.3300,040526,0.0,,D*4B
$GNGGA,173246.00,4850.9949,N,00031.2926,W,2,12,0.5,83.5,M,46.3,M,0,*66
$GNRMC,173247.00,A,4850.9950,N,00031.2911,W,3.4340,83.1500,040526,0.0,,D*42
$GNGGA,173247.00,4850.9950,N,00031.2911,W,2,12,0.5,83.4,M,46.3,M,0,*6A
$GNRMC,173248.00,A,4850.9952,N,00031.2896,W,3.5670,83.3100,040526,0.0,,D*40
$GNGGA,173248.00,4850.9952,N,00031.2896,W,2,12,0.5,83.4,M,46.3,M,0,*69
$GNRMC,173249.00,A,4850.9952,N,00031.2880,W,3.4970,85.2400,040526,0.0,,D*4A
$GNGGA,173249.00,4850.9952,N,00031.2880,W,2,12,0.6,83.4,M,46.3,M,0,*6C
$GNRMC,173250.00,A,4850.9953,N,00031.2865,W,3.5470,85.9800,040526,0.0,,D*43
$GNGGA,173250.00,4850.9953,N,00031.2865,W,2,12,0.5,83.4,M,46.3,M,0,*6D
$GNRMC,173251.00,A,4850.9955,N,00031.2850,W,3.4090,85.7700,040526,0.0,,D*48
$GNGGA,173251.00,4850.9955,N,00031.2850,W,2,12,0.5,83.4,M,46.3,M,0,*6C
$GNRMC,173252.00,A,4850.9955,N,00031.2836,W,3.2890,85.5000,040526,0.0,,D*40
$GNGGA,173252.00,4850.9955,N,00031.2836,W,2,12,0.6,83.3,M,46.3,M,0,*6B
$GNRMC,173253.00,A,4850.9957,N,00031.2822,W,3.4120,85.8500,040526,0.0,,D*4A
$GNGGA,173253.00,4850.9957,N,00031.2822,W,2,12,0.6,83.0,M,46.3,M,0,*6E
$GNRMC,173254.00,A,4850.9958,N,00031.2807,W,3.4130,82.8200,040526,0.0,,D*44
$GNGGA,173254.00,4850.9958,N,00031.2807,W,2,12,0.5,83.1,M,46.3,M,0,*63
$GNRMC,173255.00,A,4850.9960,N,00031.2793,W,3.3690,83.1600,040526,0.0,,D*4A
$GNGGA,173255.00,4850.9960,N,00031.2793,W,2,12,0.5,83.1,M,46.3,M,0,*6B
$GNRMC,173256.00,A,4850.9961,N,00031.2779,W,3.3110,82.1600,040526,0.0,,D*42
$GNGGA,173256.00,4850.9961,N,00031.2779,W,2,12,0.6,83.1,M,46.3,M,0,*6E
$GNRMC,173257.00,A,4850.9962,N,00031.2765,W,3.2700,80.8900,040526,0.0,,D*4F
$GNGGA,173257.00,4850.9962,N,00031.2765,W,2,12,0.5,83.2,M,46.3,M,0,*61
$GNRMC,173258.00,A,4850.9964,N,00031.2752,W,3.2320,81.9600,040526,0.0,,D*4B
$GNGGA,173258.00,4850.9964,N,00031.2752,W,2,12,0.5,83.1,M,46.3,M,0,*6F
$GNRMC,173259.00,A,4850.9965,N,00031.2738,W,3.1570,80.8100,040526,0.0,,D*40
$GNGGA,173259.00,4850.9965,N,00031.2738,W,2,12,0.6,83.1,M,46.3,M,0,*60
$GNRMC,173300.00,A,4850.9966,N,00031.2725,W,3.0850,81.9900,040526,0.0,,D*44
$GNGGA,173300.00,4850.9966,N,00031.2725,W,2,12,0.6,83.1,M,46.3,M,0,*62
$GNRMC,173301.00,A,4850.9968,N,00031.2712,W,2.9910,80.5400,040526,0.0,,D*42
$GNGGA,173301.00,4850.9968,N,00031.2712,W,2,12,0.6,83.1,M,46.3,M,0,*69
$GNRMC,173302.00,A,4850.9969,N,00031.2699,W,2.9920,81.6200,040526,0.0,,D*45
$GNGGA,173302.00,4850.9969,N,00031.2699,W,2,12,0.6,83.1,M,46.3,M,0,*69
$GNRMC,173303.00,A,4850.9971,N,00031.2687,W,2.9820,78.6500,040526,0.0,,D*42
$GNGGA,173303.00,4850.9971,N,00031.2687,W,2,12,0.6,83.0,M,46.3,M,0,*6F
$GNRMC,173304.00,A,4850.9973,N,00031.2674,W,2.9840,78.3800,040526,0.0,,D*45
$GNGGA,173304.00,4850.9973,N,00031.2674,W,2,12,0.6,82.9,M,46.3,M,0,*6E
$GNRMC,173305.00,A,4850.9974,N,00031.2662,W,2.9910,78.8000,040526,0.0,,D*43
$GNGGA,173305.00,4850.9974,N,00031.2662,W,2,12,0.6,83.0,M,46.3,M,0,*67
$GNRMC,173306.00,A,4850.9976,N,00031.2649,W,2.9660,78.5600,040526,0.0,,D*48
$GNGGA,173306.00,4850.9976,N,00031.2649,W,2,12,0.6,83.0,M,46.3,M,0,*6F
$GNRMC,173307.00,A,4850.9978,N,00031.2637,W,2.9830,78.7000,040526,0.0,,D*41
$GNGGA,173307.00,4850.9978,N,00031.2637,W,2,12,0.6,83.0,M,46.3,M,0,*69
$GNRMC,173308.00,A,4850.9979,N,00031.2624,W,2.9730,80.2000,040526,0.0,,D*40
$GNGGA,173308.00,4850.9979,N,00031.2624,W,2,12,0.5,82.9,M,46.3,M,0,*6E
$GNRMC,173309.00,A,4850.9981,N,00031.2612,W,2.8300,79.9800,040526,0.0,,D*40
$GNGGA,173309.00,4850.9981,N,00031.2612,W,2,12,0.5,82.8,M,46.3,M,0,*6C
$GNRMC,173310.00,A,4850.9982,N,00031.2600,W,2.7670,79.2600,040526,0.0,,D*40
$GNGGA,173310.00,4850.9982,N,00031.2600,W,2,12,0.5,82.7,M,46.3,M,0,*6B
$GNRMC,173311.00,A,4850.9983,N,00031.2588,W,2.8020,80.0100,040526,0.0,,D*4C
$GNGGA,173311.00,4850.9983,N,00031.2588,W,2,12,0.5,82.7,M,46.3,M,0,*68
$GNRMC,173312.00,A,4850.9985,N,00031.2576,W,2.8850,77.4700,040526,0.0,,D*4D
$GNGGA,173312.00,4850.9985,N,00031.2576,W,2,12,0.5,82.8,M,46.3,M,0,*63
$GNRMC,173313.00,A,4850.9986,N,00031.2564,W,2.8070,81.4300,040526,0.0,,D*4B
$GNGGA,173313.00,4850.9986,N,00031.2564,W,2,12,0.5,82.7,M,46.3,M,0,*6D
$GNRMC,173314.00,A,4850.9988,N,00031.2553,W,2.8400,77.6400,040526,0.0,,D*49
$GNGGA,173314.00,4850.9988,N,00031.2553,W,2,12,0.5,82.7,M,46.3,M,0,*60
$GNRMC,173315.00,A,4850.9989,N,00031.2541,W,2.8970,77.6700,040526,0.0,,D*43
$GNGGA,173315.00,4850.9989,N,00031.2541,W,2,12,0.5,82.9,M,46.3,M,0,*6D
$GNRMC,173316.00,A,4850.9991,N,00031.2529,W,2.8370,77.4000,040526,0.0,,D*48
$GNGGA,173316.00,4850.9991,N,00031.2529,W,2,12,0.5,83.0,M,46.3,M,0,*61
$GNRMC,173317.00,A,4850.9993,N,00031.2518,W,2.8380,76.7100,040526,0.0,,D*45
$GNGGA,173317.00,4850.9993,N,00031.2518,W,2,12,0.5,83.1,M,46.3,M,0,*61
$GNRMC,173318.00,A,4850.9995,N,00031.2506,W,2.7950,74.7000,040526,0.0,,D*48
$GNGGA,173318.00,4850.9995,N,00031.2506,W,2,12,0.5,83.1,M,46.3,M,0,*67
$GNRMC,173319.00,A,4850.9997,N,00031.2495,W,2.7700,74.4700,040526,0.0,,D*4F
$GNGGA,173319.00,4850.9997,N,00031.2495,W,2,12,0.5,83.1,M,46.3,M,0,*6F
$GNRMC,173320.00,A,4850.9999,N,00031.2483,W,2.8140,75.0100,040526,0.0,,D*42
$GNGGA,173320.00,4850.9999,N,00031.2483,W,2,12,0.5,83.0,M,46.3,M,0,*6D
$GNRMC,173321.00,A,4851.0001,N,00031.2472,W,2.7770,76.4600,040526,0.0,,D*47
$GNGGA,173321.00,4851.0001,N,00031.2472,W,2,12,0.5,82.8,M,46.3,M,0,*6B
$GNRMC,173322.00,A,4851.0003,N,00031.2460,W,2.8940,75.0600,040526,0.0,,D*40
$GNGGA,173322.00,4851.0003,N,00031.2460,W,2,12,0.5,82.7,M,46.3,M,0,*66
$GNRMC,173323.00,A,4851.0006,N,00031.2449,W,2.7850,75.9900,040526,0.0,,D*46
$GNGGA,173323.00,4851.0006,N,00031.2449,W,2,12,0.5,82.7,M,46.3,M,0,*69
$GNRMC,173324.00,A,4851.0008,N,00031.2437,W,2.8650,73.8500,040526,0.0,,D*4C
$GNGGA,173324.00,4851.0008,N,00031.2437,W,2,12,0.5,82.7,M,46.3,M,0,*69
$GNRMC,173325.00,A,4851.0010,N,00031.2426,W,2.7860,74.1200,040526,0.0,,D*4F
$GNGGA,173325.00,4851.0010,N,00031.2426,W,2,12,0.5,82.6,M,46.3,M,0,*60
$GNRMC,173326.00,A,4851.0013,N,00031.2415,W,2.8070,74.3200,040526,0.0,,D*4B
$GNGGA,173326.00,4851.0013,N,00031.2415,W,2,12,0.5,82.6,M,46.3,M,0,*60
$GNRMC,173327.00,A,4851.0015,N,00031.2403,W,2.8910,74.7900,040526,0.0,,D*4B
$GNGGA,173327.00,4851.0015,N,00031.2403,W,2,12,0.5,82.5,M,46.3,M,0,*63
$GNRMC,173328.00,A,4851.0017,N,00031.2392,W,2.8760,74.1000,040526,0.0,,D*4F
$GNGGA,173328.00,4851.0017,N,00031.2392,W,2,12,0.5,82.5,M,46.3,M,0,*61
$GNRMC,173329.00,A,4851.0019,N,00031.2380,W,2.9410,75.3100,040526,0.0,,D*44
$GNGGA,173329.00,4851.0019,N,00031.2380,W,2,12,0.5,82.4,M,46.3,M,0,*6C
$GNRMC,173330.00,A,4851.0021,N,00031.2368,W,2.9710,73.6400,040526,0.0,,D*44
$GNGGA,173330.00,4851.0021,N,00031.2368,W,2,12,0.5,82.3,M,46.3,M,0,*6E
$GNRMC,173331.00,A,4851.0024,N,00031.2356,W,2.9960,73.5800,040526,0.0,,D*4B
$GNGGA,173331.00,4851.0024,N,00031.2356,W,2,12,0.5,82.3,M,46.3,M,0,*67
$GNRMC,173332.00,A,4851.0026,N,00031.2344,W,3.0790,73.2800,040526,0.0,,D*47
$GNGGA,173332.00,4851.0026,N,00031.2344,W,2,12,0.5,82.2,M,46.3,M,0,*64
$GNRMC,173333.00,A,4851.0029,N,00031.2332,W,3.1270,71.9400,040526,0.0,,D*47
$GNGGA,173333.00,4851.0029,N,00031.2332,W,2,12,0.5,82.1,M,46.3,M,0,*68
$GNRMC,173334.00,A,4851.0032,N,00031.2319,W,3.1950,73.0600,040526,0.0,,D*43
$GNGGA,173334.00,4851.0032,N,00031.2319,W,2,12,0.5,82.1,M,46.3,M,0,*6C
$GNRMC,173335.00,A,4851.0034,N,00031.2306,W,3.1210,72.8100,040526,0.0,,D*4B
$GNGGA,173335.00,4851.0034,N,00031.2306,W,2,12,0.5,82.1,M,46.3,M,0,*65
$GNRMC,173336.00,A,4851.0037,N,00031.2293,W,3.2000,72.2200,040526,0.0,,D*4F
$GNGGA,173336.00,4851.0037,N,00031.2293,W,2,12,0.5,82.2,M,46.3,M,0,*6B
$GNRMC,173337.00,A,4851.0039,N,00031.2280,W,3.2790,70.6200,040526,0.0,,D*4A
$GNGGA,173337.00,4851.0039,N,00031.2280,W,2,12,0.5,82.2,M,46.3,M,0,*66
$GNRMC,173338.00,A,4851.0042,N,00031.2267,W,3.3380,70.0600,040526,0.0,,D*46
$GNGGA,173338.00,4851.0042,N,00031.2267,W,2,12,0.5,82.1,M,46.3,M,0,*6F
$GNRMC,173339.00,A,4851.0045,N,00031.2254,W,3.2980,71.0300,040526,0.0,,D*4F
$GNGGA,173339.00,4851.0045,N,00031.2254,W,2,12,0.5,82.0,M,46.3,M,0,*68
$GNRMC,173340.00,A,4851.0048,N,00031.2241,W,3.3700,70.2500,040526,0.0,,D*4A
$GNGGA,173340.00,4851.0048,N,00031.2241,W,2,12,0.5,82.1,M,46.3,M,0,*6E
$GNRMC,173341.00,A,4851.0051,N,00031.2227,W,3.4650,70.0300,040526,0.0,,D*44
$GNGGA,173341.00,4851.0051,N,00031.2227,W,2,12,0.5,82.1,M,46.3,M,0,*67
$GNRMC,173342.00,A,4851.0054,N,00031.2213,W,3.4650,71.3200,040526,0.0,,D*46
$GNGGA,173342.00,4851.0054,N,00031.2213,W,2,12,0.5,82.0,M,46.3,M,0,*67
$GNRMC,173343.00,A,4851.0058,N,00031.2200,W,3.4810,69.1100,040526,0.0,,D*4B
$GNGGA,173343.00,4851.0058,N,00031.2200,W,2,12,0.5,82.1,M,46.3,M,0,*69
$GNRMC,173344.00,A,4851.0061,N,00031.2186,W,3.5770,69.1900,040526,0.0,,D*4B
$GNGGA,173344.00,4851.0061,N,00031.2186,W,2,12,0.5,82.1,M,46.3,M,0,*69
$GNRMC,173345.00,A,4851.0065,N,00031.2172,W,3.5320,68.2000,040526,0.0,,D*4F
$GNGGA,173345.00,4851.0065,N,00031.2172,W,2,12,0.5,82.1,M,46.3,M,0,*67
$GNRMC,173346.00,A,4851.0069,N,00031.2158,W,3.5520,68.1100,040526,0.0,,D*4C
$GNGGA,173346.00,4851.0069,N,00031.2158,W,2,12,0.5,82.1,M,46.3,M,0,*60
$GNRMC,173347.00,A,4851.0072,N,00031.2144,W,3.6480,69.7400,040526,0.0,,D*40
$GNGGA,173347.00,4851.0072,N,00031.2144,W,2,12,0.5,82.1,M,46.3,M,0,*66
$GNRMC,173348.00,A,4851.0076,N,00031.2129,W,3.6900,67.2200,040526,0.0,,D*48
$GNGGA,173348.00,4851.0076,N,00031.2129,W,2,12,0.5,82.0,M,46.3,M,0,*67
