$GNGGA,172809.00,4851.0065,N,00031.5166,W,1,12,0.6,85.2,M,46.3,M,0,*63
$GNRMC,172809.00,A,4851.0065,N,00031.5166,W,0.0230,0.0000,040526,0.0,,A*70
$GNRMC,172810.00,A,4851.0065,N,00031.5166,W,0.0030,0.0000,040526,0.0,,A*7A
$GNGGA,172810.00,4851.0065,N,00031.5166,W,1,12,0.6,85.1,M,46.3,M,0,*68
$GNRMC,172811.00,A,4851.0065,N,00031.5166,W,0.0260,0.0000,040526,0.0,,A*7C
$GNGGA,172811.00,4851.0065,N,00031.5166,W,1,12,0.6,85.0,M,46.3,M,0,*68
$GNRMC,172812.00,A,4851.0065,N,00031.5166,W,0.0050,0.0000,040526,0.0,,A*7E
$GNGGA,172812.00,4851.0065,N,00031.5166,W,1,12,0.6,85.0,M,46.3,M,0,*6B
$GNRMC,172813.00,A,4851.0065,N,00031.5166,W,0.0050,0.0000,040526,0.0,,A*7F
$GNGGA,172813.00,4851.0065,N,00031.5166,W,1,12,0.6,84.9,M,46.3,M,0,*62
$GNRMC,172814.00,A,4851.0065,N,00031.5166,W,0.0080,0.0000,040526,0.0,,A*75
$GNGGA,172814.00,4851.0065,N,00031.5166,W,1,12,0.6,84.9,M,46.3,M,0,*65
$GNRMC,172815.00,A,4851.0065,N,00031.5166,W,0.0070,0.0000,040526,0.0,,A*7B
$GNGGA,172815.00,4851.0065,N,00031.5166,W,1,12,0.6,84.9,M,46.3,M,0,*64
$GNRMC,172816.00,A,4851.0065,N,00031.5166,W,0.0070,0.0000,040526,0.0,,A*78
$GNGGA,172816.00,4851.0065,N,00031.5166,W,1,12,0.6,84.8,M,46.3,M,0,*66
$GNRMC,172817.00,A,4851.0064,N,00031.5166,W,0.0110,0.0000,040526,0.0,,A*7F
$GNGGA,172817.00,4851.0064,N,00031.5166,W,1,12,0.6,84.8,M,46.3,M,0,*66
$GNRMC,172818.00,A,4851.0064,N,00031.5167,W,0.0170,0.0000,040526,0.0,,A*77
$GNGGA,172818.00,4851.0064,N,00031.5167,W,1,12,0.6,84.8,M,46.3,M,0,*68
$GNRMC,172819.00,A,4851.0064,N,00031.5167,W,0.0130,0.0000,040526,0.0,,A*72
$GNGGA,172819.00,4851.0064,N,00031.5167,W,1,12,0.6,84.8,M,46.3,M,0,*69
$GNGGA,172820.00,4851.0064,N,00031.5167,W,1,12,0.6,84.8,M,46.3,M,0,*63
$GNRMC,172820.00,A,4851.0064,N,00031.5167,W,0.0100,0.0000,040526,0.0,,A*7B
$GNRMC,172821.00,A,4851.0064,N,00031.5167,W,0.0120,0.0000,040526,0.0,,A*78
$GNGGA,172821.00,4851.0064,N,00031.5167,W,1,12,0.6,84.9,M,46.3,M,0,*63
$GNRMC,172822.00,A,4851.0064,N,00031.5167,W,0.0100,0.0000,040526,0.0,,A*79
$GNGGA,172822.00,4851.0064,N,00031.5167,W,1,12,0.6,84.9,M,46.3,M,0,*60
$GNRMC,172823.00,A,4851.0064,N,00031.5167,W,0.0030,0.0000,040526,0.0,,A*7A
$GNGGA,172823.00,4851.0064,N,00031.5167,W,1,12,0.6,84.9,M,46.3,M,0,*61
$GNRMC,172824.00,A,4851.0064,N,00031.5167,W,0.0080,0.0000,040526,0.0,,A*76
$GNGGA,172824.00,4851.0064,N,00031.5167,W,1,12,0.6,84.9,M,46.3,M,0,*66
$GNRMC,172825.00,A,4851.0064,N,00031.5167,W,0.0170,0.0000,040526,0.0,,A*79
$GNGGA,172825.00,4851.0064,N,00031.5167,W,1,12,0.6,84.9,M,46.3,M,0,*67
$GNRMC,172826.00,A,4851.0064,N,00031.5168,W,0.0080,0.0000,040526,0.0,,A*7B
$GNGGA,172826.00,4851.0064,N,00031.5168,W,1,12,0.6,85.0,M,46.3,M,0,*63
$GNRMC,172827.00,A,4851.0064,N,00031.5168,W,0.0180,0.0000,040526,0.0,,A*7B
$GNGGA,172827.00,4851.0064,N,00031.5168,W,1,12,0.6,85.0,M,46.3,M,0,*62
$GNRMC,172828.00,A,4851.0064,N,00031.5168,W,0.0110,0.0000,040526,0.0,,A*7D
$GNGGA,172828.00,4851.0064,N,00031.5168,W,1,12,0.6,85.1,M,46.3,M,0,*6C
$GNRMC,172829.00,A,4851.0064,N,00031.5168,W,0.0110,0.0000,040526,0.0,,A*7C
$GNGGA,172829.00,4851.0064,N,00031.5168,W,1,12,0.6,85.2,M,46.3,M,0,*6E
$GNRMC,172830.00,A,4851.0064,N,00031.5168,W,0.0070,0.0000,040526,0.0,,A*73
$GNGGA,172830.00,4851.0064,N,00031.5168,W,1,12,0.6,85.2,M,46.3,M,0,*66
$GNRMC,172831.00,A,4851.0065,N,00031.5168,W,0.0040,0.0000,040526,0.0,,A*70
$GNGGA,172831.00,4851.0065,N,00031.5168,W,1,12,0.6,85.3,M,46.3,M,0,*67
$GNRMC,172832.00,A,4851.0065,N,00031.5168,W,0.0140,0.0000,040526,0.0,,A*72
$GNGGA,172832.00,4851.0065,N,00031.5168,W,1,12,0.6,85.4,M,46.3,M,0,*63
$GNRMC,172833.00,A,4851.0065,N,00031.5168,W,0.0070,0.0000,040526,0.0,,A*71
$GNGGA,172833.00,4851.0065,N,00031.5168,W,1,12,0.6,85.5,M,46.3,M,0,*63
$GNRMC,172834.00,A,4851.0065,N,00031.5168,W,0.0070,0.0000,040526,0.0,,A*76
$GNGGA,172834.00,4851.0065,N,00031.5168,W,1,12,0.6,85.5,M,46.3,M,0,*64
$GNRMC,172835.00,A,4851.0065,N,00031.5168,W,0.0190,0.0000,040526,0.0,,A*78
$GNGGA,172835.00,4851.0065,N,00031.5168,W,1,12,0.6,85.5,M,46.3,M,0,*65
$GNRMC,172836.00,A,4851.0064,N,00031.5168,W,0.0090,0.0000,040526,0.0,,A*7B
$GNGGA,172836.00,4851.0064,N,00031.5168,W,1,12,0.6,85.5,M,46.3,M,0,*67
$GNRMC,172837.00,A,4851.0064,N,00031.5168,W,0.0130,0.0000,040526,0.0,,A*71
$GNGGA,172837.00,4851.0064,N,00031.5168,W,1,12,0.6,85.6,M,46.3,M,0,*65
$GNRMC,172838.00,A,4851.0064,N,00031.5168,W,0.0040,0.0000,040526,0.0,,A*78
$GNGGA,172838.00,4851.0064,N,00031.5168,W,1,12,0.6,85.6,M,46.3,M,0,*6A
$GNRMC,172839.00,A,4851.0064,N,00031.5168,W,0.0640,0.0000,040526,0.0,,A*7F
$GNGGA,172839.00,4851.0064,N,00031.5168,W,1,12,0.6,85.6,M,46.3,M,0,*6B
$GNRMC,172840.00,A,4851.0064,N,00031.5168,W,0.0290,0.0000,040526,0.0,,A*78
$GNGGA,172840.00,4851.0064,N,00031.5168,W,1,12,0.6,85.7,M,46.3,M,0,*64
$GNRMC,172841.00,A,4851.0064,N,00031.5168,W,0.0110,0.0000,040526,0.0,,A*72
$GNGGA,172841.00,4851.0064,N,00031.5168,W,1,12,0.5,85.7,M,46.3,M,0,*66
$GNRMC,172842.00,A,4851.0064,N,00031.5168,W,0.0210,0.0000,040526,0.0,,A*72
$GNGGA,172842.00,4851.0064,N,00031.5168,W,1,12,0.5,85.7,M,46.3,M,0,*65
$GNRMC,172843.00,A,4851.0064,N,00031.5168,W,0.0370,0.0000,040526,0.0,,A*74
$GNGGA,172843.00,4851.0064,N,00031.5168,W,1,12,0.5,85.7,M,46.3,M,0,*64
$GNRMC,172844.00,A,4851.0064,N,00031.5168,W,0.0050,0.0000,040526,0.0,,A*72
$GNGGA,172844.00,4851.0064,N,00031.5168,W,1,12,0.5,85.7,M,46.3,M,0,*63
$GNRMC,172845.00,A,4851.0064,N,00031.5168,W,0.0060,0.0000,040526,0.0,,A*70
$GNGGA,172845.00,4851.0064,N,00031.5168,W,1,12,0.5,85.8,M,46.3,M,0,*6D
$GNRMC,172846.00,A,4851.0064,N,00031.5168,W,0.0080,0.0000,040526,0.0,,A*7D
$GNGGA,172846.00,4851.0064,N,00031.5168,W,1,12,0.5,85.8,M,46.3,M,0,*6E
$GNRMC,172847.00,A,4851.0064,N,00031.5168,W,0.0250,0.0000,040526,0.0,,A*73
$GNGGA,172847.00,4851.0064,N,00031.5168,W,1,12,0.5,85.8,M,46.3,M,0,*6F
$GNRMC,172848.00,A,4851.0064,N,00031.5168,W,0.0070,0.0000,040526,0.0,,A*7C
$GNGGA,172848.00,4851.0064,N,00031.5168,W,1,12,0.5,85.8,M,46.3,M,0,*60
$GNRMC,172849.00,A,4851.0064,N,00031.5168,W,0.0090,0.0000,040526,0.0,,A*73
$GNGGA,172849.00,4851.0064,N,00031.5168,W,1,12,0.5,85.9,M,46.3,M,0,*60
$GNRMC,172850.00,A,4851.0064,N,00031.5168,W,0.0200,0.0000,040526,0.0,,A*70
$GNGGA,172850.00,4851.0064,N,00031.5168,W,1,12,0.5,85.9,M,46.3,M,0,*68
$GNRMC,172851.00,A,4851.0064,N,00031.5168,W,0.0030,0.0000,040526,0.0,,A*70
$GNGGA,172851.00,4851.0064,N,00031.5168,W,1,12,0.5,85.9,M,46.3,M,0,*69
$GNRMC,172852.00,A,4851.0064,N,00031.5168,W,0.0270,0.0000,040526,0.0,,A*75
$GNGGA,172852.00,4851.0064,N,00031.5168,W,1,12,0.5,85.9,M,46.3,M,0,*6A
$GNRMC,172853.00,A,4851.0064,N,00031.5169,W,0.0150,0.0000,040526,0.0,,A*74
$GNGGA,172853.00,4851.0064,N,00031.5169,W,1,12,0.5,86.0,M,46.3,M,0,*60
$GNRMC,172854.00,A,4851.0064,N,00031.5169,W,0.0030,0.0000,040526,0.0,,A*74
$GNGGA,172854.00,4851.0064,N,00031.5169,W,1,12,0.5,86.0,M,46.3,M,0,*67
$GNRMC,172855.00,A,4851.0064,N,00031.5169,W,0.0430,0.0000,040526,0.0,,A*71
$GNGGA,172855.00,4851.0064,N,00031.5169,W,1,12,0.5,86.0,M,46.3,M,0,*66
$GNRMC,172856.00,A,4851.0064,N,00031.5169,W,0.0020,0.0000,040526,0.0,,A*77
$GNGGA,172856.00,4851.0064,N,00031.5169,W,1,12,0.5,86.0,M,46.3,M,0,*65
$GNRMC,172857.00,A,4851.0064,N,00031.5169,W,0.0120,0.0000,040526,0.0,,A*77
$GNGGA,172857.00,4851.0064,N,00031.5169,W,1,12,0.5,86.0,M,46.3,M,0,*64
$GNRMC,172858.00,A,4851.0064,N,00031.5170,W,0.0370,0.0000,040526,0.0,,A*77
$GNGGA,172858.00,4851.0064,N,00031.5170,W,1,12,0.5,86.0,M,46.3,M,0,*63
$GNRMC,172859.00,A,4851.0064,N,00031.5170,W,0.0100,0.0000,040526,0.0,,A*73
$GNGGA,172859.00,4851.0064,N,00031.5170,W,1,12,0.5,86.0,M,46.3,M,0,*62
$GNRMC,172900.00,A,4851.0064,N,00031.5170,W,0.0370,0.0000,040526,0.0,,A*7B
$GNGGA,172900.00,4851.0064,N,00031.5170,W,1,12,0.6,86.0,M,46.3,M,0,*6C
$GNRMC,172901.00,A,4851.0064,N,00031.5170,W,0.0420,0.0000,040526,0.0,,A*78
$GNGGA,172901.00,4851.0064,N,00031.5170,W,1,12,0.5,86.1,M,46.3,M,0,*6F
$GNRMC,172902.00,A,4851.0064,N,00031.5170,W,0.0300,0.0000,040526,0.0,,A*7E
$GNGGA,172902.00,4851.0064,N,00031.5170,W,1,12,0.5,86.1,M,46.3,M,0,*6C
$GNRMC,172903.00,A,4851.0064,N,00031.5170,W,0.0090,0.0000,040526,0.0,,A*75
$GNGGA,172903.00,4851.0064,N,00031.5170,W,1,12,0.5,86.1,M,46.3,M,0,*6D
$GNRMC,172904.00,A,4851.0064,N,00031.5171,W,0.0150,0.0000,040526,0.0,,A*7E
$GNGGA,172904.00,4851.0064,N,00031.5171,W,1,12,0.5,86.2,M,46.3,M,0,*68
$GNRMC,172905.00,A,4851.0064,N,00031.5171,W,0.0120,0.0000,040526,0.0,,A*78
$GNGGA,172905.00,4851.0064,N,00031.5171,W,1,12,0.5,86.2,M,46.3,M,0,*69
$GNRMC,172906.00,A,4851.0064,N,00031.5171,W,0.0050,0.0000,040526,0.0,,A*7D
$GNGGA,172906.00,4851.0064,N,00031.5171,W,1,12,0.5,86.3,M,46.3,M,0,*6B
$GNRMC,172907.00,A,4851.0064,N,00031.5171,W,0.0090,0.0000,040526,0.0,,A*70
$GNGGA,172907.00,4851.0064,N,00031.5171,W,1,12,0.5,86.3,M,46.3,M,0,*6A
$GNRMC,172908.00,A,4851.0064,N,00031.5171,W,0.0170,0.0000,040526,0.0,,A*70
$GNGGA,172908.00,4851.0064,N,00031.5171,W,1,12,0.5,86.3,M,46.3,M,0,*65
$GNRMC,172909.00,A,4851.0064,N,00031.5171,W,0.0490,0.0000,040526,0.0,,A*7A
$GNGGA,172909.00,4851.0064,N,00031.5171,W,1,12,0.5,86.4,M,46.3,M,0,*63
$GNRMC,172910.00,A,4851.0064,N,00031.5171,W,0.0200,0.0000,040526,0.0,,A*7D
$GNGGA,172910.00,4851.0064,N,00031.5171,W,1,12,0.5,86.4,M,46.3,M,0,*6B
$GNRMC,172911.00,A,4851.0064,N,00031.5172,W,0.0190,0.0000,040526,0.0,,A*75
$GNGGA,172911.00,4851.0064,N,00031.5172,W,1,12,0.5,86.4,M,46.3,M,0,*69
$GNRMC,172912.00,A,4851.0064,N,00031.5172,W,0.0270,0.0000,040526,0.0,,A*7B
$GNGGA,172912.00,4851.0064,N,00031.5172,W,1,12,0.5,86.4,M,46.3,M,0,*6A
$GNRMC,172913.00,A,4851.0064,N,00031.5172,W,0.0230,0.0000,040526,0.0,,A*7E
$GNGGA,172913.00,4851.0064,N,00031.5172,W,1,12,0.5,86.4,M,46.3,M,0,*6B
$GNRMC,172914.00,A,4851.0064,N,00031.5172,W,0.0200,0.0000,040526,0.0,,A*7A
$GNGGA,172914.00,4851.0064,N,00031.5172,W,1,12,0.5,86.4,M,46.3,M,0,*6C
$GNRMC,172915.00,A,4851.0064,N,00031.5172,W,0.0260,0.0000,040526,0.0,,A*7D
$GNGGA,172915.00,4851.0064,N,00031.5172,W,1,12,0.5,86.4,M,46.3,M,0,*6D
$GNRMC,172916.00,A,4851.0064,N,00031.5172,W,0.0270,0.0000,040526,0.0,,A*7F
$GNGGA,172916.00,4851.0064,N,00031.5172,W,1,12,0.5,86.4,M,46.3,M,0,*6E
$GNRMC,172917.00,A,4851.0064,N,00031.5172,W,0.0200,0.0000,040526,0.0,,A*79
$GNGGA,172917.00,4851.0064,N,00031.5172,W,1,12,0.6,86.4,M,46.3,M,0,*6C
$GNRMC,172918.00,A,4851.0064,N,00031.5172,W,0.0110,0.0000,040526,0.0,,A*74
$GNGGA,172918.00,4851.0064,N,00031.5172,W,1,12,0.5,86.4,M,46.3,M,0,*60
$GNRMC,172919.00,A,4851.0064,N,00031.5172,W,0.0370,0.0000,040526,0.0,,A*71
$GNGGA,172919.00,4851.0064,N,00031.5172,W,1,12,0.5,86.4,M,46.3,M,0,*61
$GNRMC,172920.00,A,4851.0064,N,00031.5172,W,0.0250,0.0000,040526,0.0,,A*78
$GNGGA,172920.00,4851.0064,N,00031.5172,W,1,12,0.5,86.4,M,46.3,M,0,*6B
$GNRMC,172921.00,A,4851.0064,N,00031.5172,W,0.0140,0.0000,040526,0.0,,A*7B
$GNGGA,172921.00,4851.0064,N,00031.5172,W,1,12,0.5,86.4,M,46.3,M,0,*6A
$GNRMC,172922.00,A,4851.0064,N,00031.5172,W,0.0240,0.0000,040526,0.0,,A*7B
$GNGGA,172922.00,4851.0064,N,00031.5172,W,1,12,0.5,86.4,M,46.3,M,0,*69
$GNRMC,172923.00,A,4851.0064,N,00031.5172,W,0.0130,0.0000,040526,0.0,,A*7E
$GNGGA,172923.00,4851.0064,N,00031.5172,W,1,12,0.5,86.4,M,46.3,M,0,*68
$GNRMC,172924.00,A,4851.0064,N,00031.5172,W,0.0050,0.0000,040526,0.0,,A*7E
$GNGGA,172924.00,4851.0064,N,00031.5172,W,1,12,0.5,86.4,M,46.3,M,0,*6F
$GNRMC,172925.00,A,4851.0064,N,00031.5172,W,0.1240,0.0000,040526,0.0,,A*7D
$GNGGA,172925.00,4851.0064,N,00031.5172,W,1,12,0.5,86.4,M,46.3,M,0,*6E
$GNRMC,172926.00,A,4851.0064,N,00031.5172,W,0.0810,0.0000,040526,0.0,,A*70
$GNGGA,172926.00,4851.0064,N,00031.5172,W,1,12,0.5,86.4,M,46.3,M,0,*6D
$GNRMC,172927.00,A,4851.0064,N,00031.5172,W,0.1320,0.0000,040526,0.0,,A*78
$GNGGA,172927.00,4851.0064,N,00031.5172,W,1,12,0.5,86.2,M,46.3,M,0,*6A
$GNRMC,172928.00,A,4851.0064,N,00031.5172,W,0.0150,0.0000,040526,0.0,,A*73
$GNGGA,172928.00,4851.0064,N,00031.5172,W,1,12,0.5,86.2,M,46.3,M,0,*65
$GNRMC,172929.00,A,4851.0063,N,00031.5172,W,0.0580,0.0000,040526,0.0,,A*7C
$GNGGA,172929.00,4851.0063,N,00031.5172,W,1,12,0.5,86.3,M,46.3,M,0,*62
$GNRMC,172930.00,A,4851.0063,N,00031.5171,W,0.0170,0.0000,040526,0.0,,A*7C
$GNGGA,172930.00,4851.0063,N,00031.5171,W,1,12,0.5,86.3,M,46.3,M,0,*69
$GNRMC,172931.00,A,4851.0063,N,00031.5171,W,0.0820,0.0000,040526,0.0,,A*71
$GNGGA,172931.00,4851.0063,N,00031.5171,W,1,12,0.5,86.4,M,46.3,M,0,*6F
$GNRMC,172932.00,A,4851.0063,N,00031.5171,W,0.0850,0.0000,040526,0.0,,A*75
$GNGGA,172932.00,4851.0063,N,00031.5171,W,1,12,0.5,86.4,M,46.3,M,0,*6C
$GNRMC,172933.00,A,4851.0063,N,00031.5171,W,0.0740,0.0000,040526,0.0,,A*7A
$GNGGA,172933.00,4851.0063,N,00031.5171,W,1,12,0.5,86.5,M,46.3,M,0,*6C
$GNRMC,172934.00,A,4851.0063,N,00031.5170,W,0.0190,0.0000,040526,0.0,,A*77
$GNGGA,172934.00,4851.0063,N,00031.5170,W,1,12,0.6,86.4,M,46.3,M,0,*68
$GNRMC,172935.00,A,4851.0063,N,00031.5170,W,0.0280,0.0000,040526,0.0,,A*74
$GNGGA,172935.00,4851.0063,N,00031.5170,W,1,12,0.6,86.4,M,46.3,M,0,*69
$GNRMC,172936.00,A,4851.0063,N,00031.5169,W,0.0180,0.0000,040526,0.0,,A*7C
$GNGGA,172936.00,4851.0063,N,00031.5169,W,1,12,0.5,86.5,M,46.3,M,0,*60
$GNRMC,172937.00,A,4851.0063,N,00031.5169,W,0.0300,0.0000,040526,0.0,,A*77
$GNGGA,172937.00,4851.0063,N,00031.5169,W,1,12,0.5,86.5,M,46.3,M,0,*61
$GNRMC,172938.00,A,4851.0063,N,00031.5170,W,0.0210,0.0000,040526,0.0,,A*70
$GNGGA,172938.00,4851.0063,N,00031.5170,W,1,12,0.5,86.5,M,46.3,M,0,*66
$GNRMC,172939.00,A,4851.0063,N,00031.5169,W,0.0250,0.0000,040526,0.0,,A*7D
$GNGGA,172939.00,4851.0063,N,00031.5169,W,1,12,0.6,86.4,M,46.3,M,0,*6D
$GNRMC,172940.00,A,4851.0063,N,00031.5169,W,0.0240,0.0000,040526,0.0,,A*72
$GNGGA,172940.00,4851.0063,N,00031.5169,W,1,12,0.5,86.5,M,46.3,M,0,*61
$GNRMC,172941.00,A,4851.0063,N,00031.5169,W,0.0380,0.0000,040526,0.0,,A*7E
$GNGGA,172941.00,4851.0063,N,00031.5169,W,1,12,0.5,86.4,M,46.3,M,0,*61
$GNRMC,172942.00,A,4851.0063,N,00031.5169,W,0.0050,0.0000,040526,0.0,,A*73
$GNGGA,172942.00,4851.0063,N,00031.5169,W,1,12,0.5,86.4,M,46.3,M,0,*62
$GNRMC,172943.00,A,4851.0063,N,00031.5169,W,0.0250,0.0000,040526,0.0,,A*70
$GNGGA,172943.00,4851.0063,N,00031.5169,W,1,12,0.5,86.5,M,46.3,M,0,*62
$GNRMC,172944.00,A,4851.0063,N,00031.5169,W,0.0060,0.0000,040526,0.0,,A*76
$GNGGA,172944.00,4851.0063,N,00031.5169,W,1,12,0.5,86.5,M,46.3,M,0,*65
$GNRMC,172945.00,A,4851.0063,N,00031.5169,W,0.0740,0.0000,040526,0.0,,A*72
$GNGGA,172945.00,4851.0063,N,00031.5169,W,1,12,0.5,86.5,M,46.3,M,0,*64
$GNRMC,172946.00,A,4851.0063,N,00031.5169,W,0.0090,0.0000,040526,0.0,,A*7B
$GNGGA,172946.00,4851.0063,N,00031.5169,W,1,12,0.5,86.5,M,46.3,M,0,*67
$GNRMC,172947.00,A,4851.0063,N,00031.5169,W,0.0110,0.0000,040526,0.0,,A*73
$GNGGA,172947.00,4851.0063,N,00031.5169,W,1,12,0.5,86.5,M,46.3,M,0,*66
$GNRMC,172948.00,A,4851.0063,N,00031.5169,W,0.0060,0.0000,040526,0.0,,A*7A
$GNGGA,172948.00,4851.0063,N,00031.5169,W,1,12,0.5,86.6,M,46.3,M,0,*6A
$GNRMC,172949.00,A,4851.0063,N,00031.5170,W,0.0030,0.0000,040526,0.0,,A*76
$GNGGA,172949.00,4851.0063,N,00031.5170,W,1,12,0.5,86.6,M,46.3,M,0,*63
$GNRMC,172950.00,A,4851.0063,N,00031.5170,W,0.0190,0.0000,040526,0.0,,A*75
$GNGGA,172950.00,4851.0063,N,00031.5170,W,1,12,0.5,86.6,M,46.3,M,0,*6B
$GNRMC,172951.00,A,4851.0063,N,00031.5170,W,0.0150,0.0000,040526,0.0,,A*78
$GNGGA,172951.00,4851.0063,N,00031.5170,W,1,12,0.5,86.6,M,46.3,M,0,*6A
$GNRMC,172952.00,A,4851.0063,N,00031.5170,W,0.0060,0.0000,040526,0.0,,A*79
$GNGGA,172952.00,4851.0063,N,00031.5170,W,1,12,0.5,86.5,M,46.3,M,0,*6A
$GNRMC,172953.00,A,4851.0063,N,00031.5170,W,0.0190,0.0000,040526,0.0,,A*76
$GNGGA,172953.00,4851.0063,N,00031.5170,W,1,12,0.5,86.5,M,46.3,M,0,*6B
$GNRMC,172954.00,A,4851.0063,N,00031.5170,W,0.0080,0.0000,040526,0.0,,A*71
$GNGGA,172954.00,4851.0063,N,00031.5170,W,1,12,0.5,86.6,M,46.3,M,0,*6F
$GNRMC,172955.00,A,4851.0063,N,00031.5170,W,0.0070,0.0000,040526,0.0,,A*7F
$GNGGA,172955.00,4851.0063,N,00031.5170,W,1,12,0.5,86.6,M,46.3,M,0,*6E
$GNRMC,172956.00,A,4851.0063,N,00031.5170,W,0.0060,0.0000,040526,0.0,,A*7D
$GNGGA,172956.00,4851.0063,N,00031.5170,W,1,12,0.5,86.6,M,46.3,M,0,*6D
$GNRMC,172957.00,A,4851.0063,N,00031.5170,W,0.0110,0.0000,040526,0.0,,A*7A
$GNGGA,172957.00,4851.0063,N,00031.5170,W,1,12,0.5,86.6,M,46.3,M,0,*6C
$GNRMC,172958.00,A,4851.0063,N,00031.5170,W,0.0310,0.0000,040526,0.0,,A*77
$GNGGA,172958.00,4851.0063,N,00031.5170,W,1,12,0.5,86.6,M,46.3,M,0,*63
$GNRMC,172959.00,A,4851.0063,N,00031.5170,W,0.0070,0.0000,040526,0.0,,A*73
$GNGGA,172959.00,4851.0063,N,00031.5170,W,1,12,0.5,86.5,M,46.3,M,0,*61
$GNRMC,173000.00,A,4851.0063,N,00031.5170,W,0.0070,0.0000,040526,0.0,,A*77
$GNGGA,173000.00,4851.0063,N,00031.5170,W,1,12,0.5,86.5,M,46.3,M,0,*65
$GNRMC,173001.00,A,4851.0063,N,00031.5170,W,0.0150,0.0000,040526,0.0,,A*75
$GNGGA,173001.00,4851.0063,N,00031.5170,W,1,12,0.5,86.5,M,46.3,M,0,*64
$GNRMC,173002.00,A,4851.0063,N,00031.5170,W,0.0170,0.0000,040526,0.0,,A*74
$GNGGA,173002.00,4851.0063,N,00031.5170,W,1,12,0.5,86.5,M,46.3,M,0,*67
$GNRMC,173003.00,A,4851.0063,N,00031.5170,W,0.0110,0.0000,040526,0.0,,A*73
$GNGGA,173003.00,4851.0063,N,00031.5170,W,1,12,0.5,86.5,M,46.3,M,0,*66
$GNRMC,173004.00,A,4851.0063,N,00031.5170,W,0.0080,0.0000,040526,0.0,,A*7C
$GNGGA,173004.00,4851.0063,N,00031.5170,W,1,12,0.5,86.4,M,46.3,M,0,*60
$GNRMC,173005.00,A,4851.0063,N,00031.5170,W,0.0040,0.0000,040526,0.0,,A*71
$GNGGA,173005.00,4851.0063,N,00031.5170,W,1,12,0.5,86.4,M,46.3,M,0,*61
$GNRMC,173006.00,A,4851.0063,N,00031.5170,W,0.0100,0.0000,040526,0.0,,A*77
$GNGGA,173006.00,4851.0063,N,00031.5170,W,1,12,0.5,86.4,M,46.3,M,0,*62
$GNRMC,173007.00,A,4851.0063,N,00031.5170,W,0.0520,0.0000,040526,0.0,,A*70
$GNGGA,173007.00,4851.0063,N,00031.5170,W,1,12,0.5,86.4,M,46.3,M,0,*63
$GNRMC,173008.00,A,4851.0063,N,00031.5170,W,0.0150,0.0000,040526,0.0,,A*7C
$GNGGA,173008.00,4851.0063,N,00031.5170,W,1,12,0.5,86.3,M,46.3,M,0,*6B
$GNRMC,173009.00,A,4851.0062,N,00031.5170,W,0.0440,0.0000,040526,0.0,,A*78
$GNGGA,173009.00,4851.0062,N,00031.5170,W,1,12,0.5,86.3,M,46.3,M,0,*6B
$GNRMC,173010.00,A,4851.0062,N,00031.5170,W,0.0610,0.0000,040526,0.0,,A*77
$GNGGA,173010.00,4851.0062,N,00031.5170,W,1,12,0.5,86.3,M,46.3,M,0,*63
$GNRMC,173011.00,A,4851.0062,N,00031.5170,W,0.0670,0.0000,040526,0.0,,A*70
$GNGGA,173011.00,4851.0062,N,00031.5170,W,1,12,0.5,86.3,M,46.3,M,0,*62
$GNRMC,173012.00,A,4851.0062,N,00031.5169,W,0.1540,0.0000,040526,0.0,,A*7A
$GNGGA,173012.00,4851.0062,N,00031.5169,W,1,12,0.5,86.3,M,46.3,M,0,*69
$GNRMC,173013.00,A,4851.0062,N,00031.5168,W,0.2490,0.0000,040526,0.0,,A*75
$GNGGA,173013.00,4851.0062,N,00031.5168,W,1,12,0.5,86.3,M,46.3,M,0,*69
$GNRMC,173014.00,A,4851.0062,N,00031.5167,W,0.5100,91.0600,040526,0.0,,A*48
$GNGGA,173014.00,4851.0062,N,00031.5167,W,1,12,0.5,86.4,M,46.3,M,0,*66
$GNRMC,173015.00,A,4851.0062,N,00031.5164,W,0.7970,94.7000,040526,0.0,,A*43
$GNGGA,173015.00,4851.0062,N,00031.5164,W,1,12,0.5,86.4,M,46.3,M,0,*64
$GNRMC,173016.00,A,4851.0062,N,00031.5160,W,1.0350,91.2800,040526,0.0,,A*42
$GNGGA,173016.00,4851.0062,N,00031.5160,W,1,12,0.5,86.4,M,46.3,M,0,*63
$GNRMC,173017.00,A,4851.0062,N,00031.5154,W,1.4580,94.4700,040526,0.0,,A*47
$GNGGA,173017.00,4851.0062,N,00031.5154,W,1,12,0.5,86.6,M,46.3,M,0,*67
$GNRMC,173018.00,A,4851.0061,N,00031.5147,W,1.8850,94.2300,040526,0.0,,A*47
$GNGGA,173018.00,4851.0061,N,00031.5147,W,1,12,0.5,86.6,M,46.3,M,0,*69
$GNRMC,173019.00,A,4851.0060,N,00031.5138,W,2.0940,98.8200,040526,0.0,,A*43
$GNGGA,173019.00,4851.0060,N,00031.5138,W,1,12,0.5,86.8,M,46.3,M,0,*6F
$GNRMC,173020.00,A,4851.0060,N,00031.5129,W,2.3540,95.5000,040526,0.0,,A*44
$GNGGA,173020.00,4851.0060,N,00031.5129,W,1,12,0.5,86.9,M,46.3,M,0,*64
$GNRMC,173021.00,A,4851.0059,N,00031.5119,W,2.4760,96.1600,040526,0.0,,A*4A
$GNGGA,173021.00,4851.0059,N,00031.5119,W,1,12,0.5,87.0,M,46.3,M,0,*64
$GNRMC,173022.00,A,4851.0058,N,00031.5108,W,2.6260,94.8400,040526,0.0,,A*46
$GNGGA,173022.00,4851.0058,N,00031.5108,W,1,12,0.5,87.1,M,46.3,M,0,*67
$GNRMC,173023.00,A,4851.0058,N,00031.5096,W,2.7390,94.3900,040526,0.0,,A*48
$GNGGA,173023.00,4851.0058,N,00031.5096,W,1,12,0.5,87.2,M,46.3,M,0,*63
$GNGGA,173024.00,4851.0057,N,00031.5085,W,1,12,0.5,87.2,M,46.3,M,0,*69
$GNRMC,173024.00,A,4851.0057,N,00031.5085,W,2.8020,96.0100,040526,0.0,,A*4C
$GNRMC,173025.00,A,4851.0057,N,00031.5072,W,2.9500,94.4100,040526,0.0,,A*45
$GNGGA,173025.00,4851.0057,N,00031.5072,W,1,12,0.5,87.2,M,46.3,M,0,*60
$GNRMC,173026.00,A,4851.0056,N,00031.5060,W,2.9880,94.9900,040526,0.0,,A*44
$GNGGA,173026.00,4851.0056,N,00031.5060,W,1,12,0.5,87.2,M,46.3,M,0,*61
$GNRMC,173027.00,A,4851.0055,N,00031.5047,W,3.1830,94.7000,040526,0.0,,A*46
$GNGGA,173027.00,4851.0055,N,00031.5047,W,1,12,0.5,87.3,M,46.3,M,0,*67
$GNGGA,173028.00,4851.0054,N,00031.5033,W,1,12,0.5,87.3,M,46.3,M,0,*6A
$GNRMC,173028.00,A,4851.0054,N,00031.5033,W,3.2170,94.9600,040526,0.0,,A*4D
$GNRMC,173029.00,A,4851.0054,N,00031.5020,W,3.2240,94.5500,040526,0.0,,A*41
$GNGGA,173029.00,4851.0054,N,00031.5020,W,1,12,0.5,87.3,M,46.3,M,0,*69
$GNRMC,173030.00,A,4851.0053,N,00031.5006,W,3.3680,94.7500,040526,0.0,,A*41
$GNGGA,173030.00,4851.0053,N,00031.5006,W,1,12,0.5,87.3,M,46.3,M,0,*62
$GNRMC,173031.00,A,4851.0052,N,00031.4991,W,3.3530,94.2100,040526,0.0,,A*4E
$GNGGA,173031.00,4851.0052,N,00031.4991,W,1,12,0.5,87.2,M,46.3,M,0,*65
$GNRMC,173032.00,A,4851.0051,N,00031.4977,W,3.4150,95.7400,040526,0.0,,A*42
$GNGGA,173032.00,4851.0051,N,00031.4977,W,1,12,0.5,87.2,M,46.3,M,0,*6D
$GNRMC,173033.00,A,4851.0051,N,00031.4963,W,3.2990,94.2900,040526,0.0,,A*4D
$GNGGA,173033.00,4851.0051,N,00031.4963,W,1,12,0.5,87.2,M,46.3,M,0,*69
$GNRMC,173034.00,A,4851.0050,N,00031.4949,W,3.4260,95.4200,040526,0.0,,A*4D
$GNGGA,173034.00,4851.0050,N,00031.4949,W,1,12,0.6,87.3,M,46.3,M,0,*65
$GNRMC,173035.00,A,4851.0049,N,00031.4934,W,3.5260,95.4500,040526,0.0,,A*48
$GNGGA,173035.00,4851.0049,N,00031.4934,W,1,12,0.5,87.4,M,46.3,M,0,*62
$GNRMC,173036.00,A,4851.0048,N,00031.4919,W,3.5530,95.8800,040526,0.0,,A*46
$GNGGA,173036.00,4851.0048,N,00031.4919,W,1,12,0.6,87.4,M,46.3,M,0,*6C
$GNRMC,173037.00,A,4851.0047,N,00031.4904,W,3.5430,95.6200,040526,0.0,,A*41
$GNGGA,173037.00,4851.0047,N,00031.4904,W,1,12,0.5,87.4,M,46.3,M,0,*6D
$GNRMC,173038.00,A,4851.0046,N,00031.4889,W,3.6190,95.2900,040526,0.0,,A*48
$GNGGA,173038.00,4851.0046,N,00031.4889,W,1,12,0.5,87.4,M,46.3,M,0,*67
$GNRMC,173039.00,A,4851.0046,N,00031.4874,W,3.6510,93.9800,040526,0.0,,A*4B
$GNGGA,173039.00,4851.0046,N,00031.4874,W,1,12,0.5,87.4,M,46.3,M,0,*64
$GNRMC,173040.00,A,4851.0045,N,00031.4858,W,3.7980,95.4500,040526,0.0,,A*4A
$GNGGA,173040.00,4851.0045,N,00031.4858,W,1,12,0.5,87.3,M,46.3,M,0,*60
$GNRMC,173041.00,A,4851.0044,N,00031.4842,W,3.6690,94.5600,040526,0.0,,A*4D
$GNGGA,173041.00,4851.0044,N,00031.4842,W,1,12,0.6,87.3,M,46.3,M,0,*68
$GNRMC,173042.00,A,4851.0043,N,00031.4826,W,3.7950,94.2500,040526,0.0,,A*4D
$GNGGA,173042.00,4851.0043,N,00031.4826,W,1,12,0.5,87.2,M,46.3,M,0,*6C
$GNRMC,173043.00,A,4851.0042,N,00031.4810,W,3.8760,94.3700,040526,0.0,,A*49
$GNGGA,173043.00,4851.0042,N,00031.4810,W,1,12,0.6,87.1,M,46.3,M,0,*69
$GNRMC,173044.00,A,4851.0041,N,00031.4793,W,4.0080,95.6600,040526,0.0,,A*4A
$GNGGA,173044.00,4851.0041,N,00031.4793,W,1,12,0.6,87.2,M,46.3,M,0,*6A
$GNRMC,173045.00,A,4851.0040,N,00031.4777,W,4.0580,95.0000,040526,0.0,,A*45
$GNGGA,173045.00,4851.0040,N,00031.4777,W,1,12,0.6,87.4,M,46.3,M,0,*66
$GNRMC,173046.00,A,4851.0039,N,00031.4759,W,4.2930,94.7400,040526,0.0,,A*43
$GNGGA,173046.00,4851.0039,N,00031.4759,W,1,12,0.5,87.5,M,46.3,M,0,*65
$GNRMC,173047.00,A,4851.0038,N,00031.4740,W,4.5050,94.9100,040526,0.0,,A*48
$GNGGA,173047.00,4851.0038,N,00031.4740,W,1,12,0.5,87.4,M,46.3,M,0,*6C
$GNRMC,173048.00,A,4851.0037,N,00031.4721,W,4.6310,95.1300,040526,0.0,,A*40
$GNGGA,173048.00,4851.0037,N,00031.4721,W,1,12,0.5,87.4,M,46.3,M,0,*6B
$GNRMC,173049.00,A,4851.0036,N,00031.4702,W,4.5730,94.1100,040526,0.0,,A*47
$GNGGA,173049.00,4851.0036,N,00031.4702,W,1,12,0.5,87.4,M,46.3,M,0,*6A
$GNRMC,173050.00,A,4851.0035,N,00031.4682,W,4.6330,94.5200,040526,0.0,,A*45
$GNGGA,173050.00,4851.0035,N,00031.4682,W,1,12,0.5,87.5,M,46.3,M,0,*69
$GNRMC,173051.00,A,4851.0034,N,00031.4663,W,4.5140,94.9300,040526,0.0,,A*41
$GNGGA,173051.00,4851.0034,N,00031.4663,W,1,12,0.5,87.5,M,46.3,M,0,*66
$GNRMC,173052.00,A,4851.0033,N,00031.4643,W,4.5130,94.4600,040526,0.0,,A*48
$GNGGA,173052.00,4851.0033,N,00031.4643,W,1,12,0.5,87.5,M,46.3,M,0,*60
$GNRMC,173053.00,A,4851.0032,N,00031.4624,W,4.5850,94.9300,040526,0.0,,A*4E
$GNGGA,173053.00,4851.0032,N,00031.4624,W,1,12,0.6,87.4,M,46.3,M,0,*63
$GNRMC,173054.00,A,4851.0031,N,00031.4605,W,4.4540,95.6500,040526,0.0,,A*4C
$GNGGA,173054.00,4851.0031,N,00031.4605,W,1,12,0.6,87.3,M,46.3,M,0,*63
$GNRMC,173055.00,A,4851.0030,N,00031.4586,W,4.4580,95.5900,040526,0.0,,A*47
$GNGGA,173055.00,4851.0030,N,00031.4586,W,1,12,0.6,87.1,M,46.3,M,0,*69
$GNRMC,173056.00,A,4851.0029,N,00031.4567,W,4.3430,94.9200,040526,0.0,,A*48
$GNGGA,173056.00,4851.0029,N,00031.4567,W,1,12,0.6,87.0,M,46.3,M,0,*6C
$GNRMC,173057.00,A,4851.0029,N,00031.4549,W,4.2460,94.8500,040526,0.0,,A*47
$GNGGA,173057.00,4851.0029,N,00031.4549,W,1,12,0.6,86.8,M,46.3,M,0,*68
$GNRMC,173058.00,A,4851.0028,N,00031.4531,W,4.2110,95.1500,040526,0.0,,A*4C
$GNGGA,173058.00,4851.0028,N,00031.4531,W,1,12,0.6,86.7,M,46.3,M,0,*66
$GNRMC,173059.00,A,4851.0027,N,00031.4513,W,4.1470,95.5100,040526,0.0,,A*42
$GNGGA,173059.00,4851.0027,N,00031.4513,W,1,12,0.6,86.6,M,46.3,M,0,*69
$GNRMC,173100.00,A,4851.0026,N,00031.4496,W,4.1220,95.7200,040526,0.0,,A*40
$GNGGA,173100.00,4851.0026,N,00031.4496,W,1,12,0.6,86.5,M,46.3,M,0,*6A
$GNRMC,173101.00,A,4851.0024,N,00031.4478,W,4.0920,95.7100,040526,0.0,,A*4A
$GNGGA,173101.00,4851.0024,N,00031.4478,W,1,12,0.6,86.5,M,46.3,M,0,*69
$GNGGA,173102.00,4851.0023,N,00031.4461,W,1,12,0.6,86.4,M,46.3,M,0,*64
$GNRMC,173102.00,A,4851.0023,N,00031.4461,W,4.0230,95.9900,040526,0.0,,A*4A
$GNRMC,173103.00,A,4851.0022,N,00031.4445,W,3.9630,96.2200,040526,0.0,,A*45
$GNGGA,173103.00,4851.0022,N,00031.4445,W,1,12,0.6,86.4,M,46.3,M,0,*62
$GNRMC,173104.00,A,4851.0021,N,00031.4428,W,3.9440,95.3100,040526,0.0,,A*4E
$GNGGA,173104.00,4851.0021,N,00031.4428,W,1,12,0.6,86.4,M,46.3,M,0,*6D
$GNRMC,173105.00,A,4851.0020,N,00031.4411,W,3.9760,96.3000,040526,0.0,,A*47
$GNGGA,173105.00,4851.0020,N,00031.4411,W,1,12,0.5,86.4,M,46.3,M,0,*64
$GNRMC,173106.00,A,4851.0019,N,00031.4394,W,3.9160,96.4800,040526,0.0,,A*4D
$GNGGA,173106.00,4851.0019,N,00031.4394,W,1,12,0.5,86.3,M,46.3,M,0,*60
$GNRMC,173107.00,A,4851.0018,N,00031.4379,W,3.7300,96.8600,040526,0.0,,A*46
$GNGGA,173107.00,4851.0018,N,00031.4379,W,1,12,0.5,86.4,M,46.3,M,0,*64
$GNRMC,173108.00,A,4851.0017,N,00031.4363,W,3.8030,96.4500,040526,0.0,,A*4D
$GNGGA,173108.00,4851.0017,N,00031.4363,W,1,12,0.5,86.4,M,46.3,M,0,*6F
$GNRMC,173109.00,A,4851.0016,N,00031.4347,W,3.7580,95.6000,040526,0.0,,A*4E
$GNGGA,173109.00,4851.0016,N,00031.4347,W,1,12,0.5,86.4,M,46.3,M,0,*69
$GNRMC,173110.00,A,4851.0015,N,00031.4331,W,3.6420,97.1200,040526,0.0,,A*49
$GNGGA,173110.00,4851.0015,N,00031.4331,W,1,12,0.5,86.3,M,46.3,M,0,*64
$GNRMC,173111.00,A,4851.0014,N,00031.4316,W,3.5960,95.7300,040526,0.0,,A*43
$GNGGA,173111.00,4851.0014,N,00031.4316,W,1,12,0.5,86.3,M,46.3,M,0,*61
$GNRMC,173112.00,A,4851.0012,N,00031.4300,W,3.6470,97.6800,040526,0.0,,A*46
$GNGGA,173112.00,4851.0012,N,00031.4300,W,1,12,0.5,86.4,M,46.3,M,0,*64
$GNRMC,173113.00,A,4851.0011,N,00031.4285,W,3.6640,95.7000,040526,0.0,,A*42
$GNGGA,173113.00,4851.0011,N,00031.4285,W,1,12,0.5,86.3,M,46.3,M,0,*6D
$GNRMC,173114.00,A,4851.0011,N,00031.4270,W,3.5330,93.9400,040526,0.0,,A*42
$GNGGA,173114.00,4851.0011,N,00031.4270,W,1,12,0.6,86.3,M,46.3,M,0,*63
$GNRMC,173115.00,A,4851.0010,N,00031.4255,W,3.5280,94.4800,040526,0.0,,A*49
$GNGGA,173115.00,4851.0010,N,00031.4255,W,1,12,0.5,86.4,M,46.3,M,0,*60
$GNRMC,173116.00,A,4851.0009,N,00031.4240,W,3.4670,95.4100,040526,0.0,,A*44
$GNGGA,173116.00,4851.0009,N,00031.4240,W,1,12,0.5,86.3,M,46.3,M,0,*68
$GNRMC,173117.00,A,4851.0008,N,00031.4226,W,3.3660,96.3100,040526,0.0,,A*46
$GNGGA,173117.00,4851.0008,N,00031.4226,W,1,12,0.5,86.3,M,46.3,M,0,*68
$GNRMC,173118.00,A,4851.0007,N,00031.4212,W,3.3660,95.6400,040526,0.0,,A*42
$GNGGA,173118.00,4851.0007,N,00031.4212,W,1,12,0.5,86.3,M,46.3,M,0,*6F
$GNRMC,173119.00,A,4851.0006,N,00031.4197,W,3.4150,95.9800,040526,0.0,,A*4C
$GNGGA,173119.00,4851.0006,N,00031.4197,W,1,12,0.5,86.3,M,46.3,M,0,*61
$GNRMC,173120.00,A,4851.0005,N,00031.4183,W,3.3550,97.3300,040526,0.0,,A*40
$GNGGA,173120.00,4851.0005,N,00031.4183,W,1,12,0.5,86.4,M,46.3,M,0,*6A
$GNRMC,173121.00,A,4851.0003,N,00031.4169,W,3.3900,96.8500,040526,0.0,,A*46
$GNGGA,173121.00,4851.0003,N,00031.4169,W,1,12,0.6,86.4,M,46.3,M,0,*6A
$GNRMC,173122.00,A,4851.0002,N,00031.4155,W,3.3410,96.2200,040526,0.0,,A*4A
$GNGGA,173122.00,4851.0002,N,00031.4155,W,1,12,0.6,86.5,M,46.3,M,0,*66
$GNRMC,173123.00,A,4851.0002,N,00031.4141,W,3.2570,94.6500,040526,0.0,,A*49
$GNGGA,173123.00,4851.0002,N,00031.4141,W,1,12,0.6,86.6,M,46.3,M,0,*61
$GNRMC,173124.00,A,4851.0001,N,00031.4128,W,3.2140,95.6100,040526,0.0,,A*40
$GNGGA,173124.00,4851.0001,N,00031.4128,W,1,12,0.6,86.6,M,46.3,M,0,*6A
$GNRMC,173125.00,A,4851.0000,N,00031.4114,W,3.2300,95.7000,040526,0.0,,A*49
$GNGGA,173125.00,4851.0000,N,00031.4114,W,1,12,0.5,86.6,M,46.3,M,0,*66
$GNRMC,173126.00,A,4850.9999,N,00031.4100,W,3.1980,95.9700,040526,0.0,,A*46
$GNGGA,173126.00,4850.9999,N,00031.4100,W,1,12,0.6,86.5,M,46.3,M,0,*61
$GNRMC,173127.00,A,4850.9997,N,00031.4087,W,3.1880,97.4000,040526,0.0,,A*4E
$GNGGA,173127.00,4850.9997,N,00031.4087,W,1,12,0.6,86.5,M,46.3,M,0,*60
$GNRMC,173128.00,A,4850.9996,N,00031.4074,W,3.1680,97.1500,040526,0.0,,A*42
$GNGGA,173128.00,4850.9996,N,00031.4074,W,1,12,0.6,86.5,M,46.3,M,0,*62
$GNRMC,173129.00,A,4850.9995,N,00031.4061,W,3.1670,95.7400,040526,0.0,,A*4E
$GNGGA,173129.00,4850.9995,N,00031.4061,W,1,12,0.6,86.6,M,46.3,M,0,*67
$GNRMC,173130.00,A,4850.9994,N,00031.4048,W,3.0980,95.6200,040526,0.0,,A*4A
$GNGGA,173130.00,4850.9994,N,00031.4048,W,1,12,0.6,86.5,M,46.3,M,0,*66
$GNRMC,173131.00,A,4850.9993,N,00031.4035,W,3.1310,95.1200,040526,0.0,,A*43
$GNGGA,173131.00,4850.9993,N,00031.4035,W,1,12,0.6,86.6,M,46.3,M,0,*69
$GNRMC,173132.00,A,4850.9992,N,00031.4022,W,3.0820,95.7800,040526,0.0,,A*42
$GNGGA,173132.00,4850.9992,N,00031.4022,W,1,12,0.6,86.6,M,46.3,M,0,*6D
$GNRMC,173133.00,A,4850.9992,N,00031.4009,W,2.9840,95.7100,040526,0.0,,A*4D
$GNGGA,173133.00,4850.9992,N,00031.4009,W,1,12,0.6,86.7,M,46.3,M,0,*64
$GNRMC,173134.00,A,4850.9991,N,00031.3997,W,2.9330,95.8800,040526,0.0,,A*4A
$GNGGA,173134.00,4850.9991,N,00031.3997,W,1,12,0.6,86.7,M,46.3,M,0,*69
$GNRMC,173135.00,A,4850.9990,N,00031.3985,W,2.8230,98.1100,040526,0.0,,A*44
$GNGGA,173135.00,4850.9990,N,00031.3985,W,1,12,0.6,86.7,M,46.3,M,0,*6A
$GNRMC,173136.00,A,4850.9989,N,00031.3973,W,2.8630,97.8700,040526,0.0,,A*42
$GNGGA,173136.00,4850.9989,N,00031.3973,W,1,12,0.6,86.7,M,46.3,M,0,*68
$GNRMC,173137.00,A,4850.9988,N,00031.3961,W,2.7080,96.1300,040526,0.0,,A*4F
$GNGGA,173137.00,4850.9988,N,00031.3961,W,1,12,0.6,86.8,M,46.3,M,0,*64
$GNRMC,173138.00,A,4850.9987,N,00031.3950,W,2.7410,96.7500,040526,0.0,,A*40
$GNGGA,173138.00,4850.9987,N,00031.3950,W,1,12,0.5,86.9,M,46.3,M,0,*64
$GNRMC,173139.00,A,4850.9986,N,00031.3938,W,2.7180,96.1300,040526,0.0,,A*42
$GNGGA,173139.00,4850.9986,N,00031.3938,W,1,12,0.5,86.8,M,46.3,M,0,*6B
$GNRMC,173140.00,A,4850.9985,N,00031.3927,W,2.6330,96.8800,040526,0.0,,A*4B
$GNGGA,173140.00,4850.9985,N,00031.3927,W,1,12,0.5,86.9,M,46.3,M,0,*69
$GNRMC,173141.00,A,4850.9984,N,00031.3916,W,2.5860,96.4600,040526,0.0,,A*46
$GNGGA,173141.00,4850.9984,N,00031.3916,W,1,12,0.6,87.0,M,46.3,M,0,*60
$GNRMC,173142.00,A,4850.9983,N,00031.3906,W,2.4890,98.2600,040526,0.0,,A*45
$GNGGA,173142.00,4850.9983,N,00031.3906,W,1,12,0.5,87.3,M,46.3,M,0,*65
$GNRMC,173143.00,A,4850.9982,N,00031.3896,W,2.3780,99.8600,040526,0.0,,A*4F
$GNGGA,173143.00,4850.9982,N,00031.3896,W,1,12,0.6,87.6,M,46.3,M,0,*6B
$GNRMC,173144.00,A,4850.9981,N,00031.3886,W,2.3550,96.5900,040526,0.0,,A*48
$GNGGA,173144.00,4850.9981,N,00031.3886,W,1,12,0.5,87.6,M,46.3,M,0,*6D
$GNRMC,173145.00,A,4850.9980,N,00031.3875,W,2.4420,95.8100,040526,0.0,,A*43
$GNGGA,173145.00,4850.9980,N,00031.3875,W,1,12,0.5,87.6,M,46.3,M,0,*61
$GNGGA,173146.00,4850.9980,N,00031.3865,W,1,12,0.5,87.7,M,46.3,M,0,*62
$GNRMC,173146.00,A,4850.9980,N,00031.3865,W,2.4250,97.4500,040526,0.0,,A*4A
$GNRMC,173147.00,A,4850.9979,N,00031.3856,W,2.1210,98.4600,040526,0.0,,A*40
$GNGGA,173147.00,4850.9979,N,00031.3856,W,1,12,0.5,87.9,M,46.3,M,0,*6B
$GNRMC,173148.00,A,4850.9979,N,00031.3846,W,2.2450,100.0500,040526,0.0,,A*78
$GNGGA,173148.00,4850.9979,N,00031.3846,W,1,12,0.5,87.9,M,46.3,M,0,*65
$GNRMC,173149.00,A,4850.9978,N,00031.3837,W,2.1530,97.6600,040526,0.0,,A*40
$GNGGA,173149.00,4850.9978,N,00031.3837,W,1,12,0.5,88.1,M,46.3,M,0,*64
$GNRMC,173150.00,A,4850.9977,N,00031.3828,W,2.0900,96.5100,040526,0.0,,A*42
$GNGGA,173150.00,4850.9977,N,00031.3828,W,1,12,0.5,88.2,M,46.3,M,0,*6E
$GNRMC,173151.00,A,4850.9977,N,00031.3819,W,2.1570,95.7200,040526,0.0,,A*49
$GNGGA,173151.00,4850.9977,N,00031.3819,W,1,12,0.5,88.1,M,46.3,M,0,*6E
$GNRMC,173152.00,A,4850.9976,N,00031.3811,W,1.9650,97.5200,040526,0.0,,A*49
$GNGGA,173152.00,4850.9976,N,00031.3811,W,1,12,0.5,88.2,M,46.3,M,0,*67
$GNRMC,173153.00,A,4850.9976,N,00031.3803,W,1.8130,95.2800,040526,0.0,,A*44
$GNGGA,173153.00,4850.9976,N,00031.3803,W,1,12,0.5,88.0,M,46.3,M,0,*67
$GNRMC,173154.00,A,4850.9975,N,00031.3795,W,1.7960,98.2900,040526,0.0,,A*4E
$GNGGA,173154.00,4850.9975,N,00031.3795,W,1,12,0.5,88.0,M,46.3,M,0,*63
$GNRMC,173155.00,A,4850.9975,N,00031.3787,W,1.7690,92.3900,040526,0.0,,A*47
$GNGGA,173155.00,4850.9975,N,00031.3787,W,1,12,0.5,88.0,M,46.3,M,0,*61
$GNGGA,173156.00,4850.9975,N,00031.3779,W,1,12,0.5,87.9,M,46.3,M,0,*65
$GNRMC,173156.00,A,4850.9975,N,00031.3779,W,1.7420,97.5200,040526,0.0,,A*44
$GNRMC,173157.00,A,4850.9974,N,00031.3771,W,1.9040,93.7400,040526,0.0,,A*40
$GNGGA,173157.00,4850.9974,N,00031.3771,W,1,12,0.5,88.0,M,46.3,M,0,*6B
$GNRMC,173158.00,A,4850.9974,N,00031.3763,W,2.0600,95.4800,040526,0.0,,A*4D
$GNGGA,173158.00,4850.9974,N,00031.3763,W,1,12,0.5,87.9,M,46.3,M,0,*61
$GNRMC,173159.00,A,4850.9973,N,00031.3753,W,2.3050,96.5600,040526,0.0,,A*44
$GNGGA,173159.00,4850.9973,N,00031.3753,W,1,12,0.5,87.7,M,46.3,M,0,*6A
$GNRMC,173200.00,A,4850.9973,N,00031.3742,W,2.6400,94.3700,040526,0.0,,A*4A
$GNGGA,173200.00,4850.9973,N,00031.3742,W,1,12,0.5,87.6,M,46.3,M,0,*64
$GNRMC,173201.00,A,4850.9972,N,00031.3730,W,2.8660,95.2300,040526,0.0,,A*41
$GNGGA,173201.00,4850.9972,N,00031.3730,W,1,12,0.5,87.6,M,46.3,M,0,*61
$GNRMC,173202.00,A,4850.9971,N,00031.3717,W,3.1110,98.9800,040526,0.0,,A*41
$GNGGA,173202.00,4850.9971,N,00031.3717,W,1,12,0.5,87.4,M,46.3,M,0,*66
$GNRMC,173203.00,A,4850.9970,N,00031.3703,W,3.4080,97.5700,040526,0.0,,A*45
$GNGGA,173203.00,4850.9970,N,00031.3703,W,1,12,0.5,87.2,M,46.3,M,0,*65
$GNRMC,173204.00,A,4850.9969,N,00031.3689,W,3.5120,96.0200,040526,0.0,,A*42
$GNGGA,173204.00,4850.9969,N,00031.3689,W,1,12,0.5,87.2,M,46.3,M,0,*69
$GNRMC,173205.00,A,4850.9968,N,00031.3674,W,3.6160,95.7400,040526,0.0,,A*45
$GNGGA,173205.00,4850.9968,N,00031.3674,W,1,12,0.5,87.1,M,46.3,M,0,*68
$GNRMC,173206.00,A,4850.9967,N,00031.3658,W,3.7970,96.2000,040526,0.0,,A*4D
$GNGGA,173206.00,4850.9967,N,00031.3658,W,1,12,0.5,87.0,M,46.3,M,0,*6B
$GNRMC,173207.00,A,4850.9966,N,00031.3641,W,3.9080,96.2500,040526,0.0,,A*48
$GNGGA,173207.00,4850.9966,N,00031.3641,W,1,12,0.5,87.0,M,46.3,M,0,*63
$GNRMC,173208.00,A,4850.9965,N,00031.3624,W,3.9840,94.5400,040526,0.0,,A*47
$GNGGA,173208.00,4850.9965,N,00031.3624,W,1,12,0.5,87.0,M,46.3,M,0,*6C
$GNRMC,173209.00,A,4850.9964,N,00031.3607,W,4.0750,95.6700,040526,0.0,,A*47
$GNGGA,173209.00,4850.9964,N,00031.3607,W,1,12,0.5,87.0,M,46.3,M,0,*6D
$GNRMC,173210.00,A,4850.9963,N,00031.3590,W,4.1330,95.4500,040526,0.0,,A*46
$GNGGA,173210.00,4850.9963,N,00031.3590,W,1,12,0.5,87.0,M,46.3,M,0,*6F
$GNRMC,173211.00,A,4850.9961,N,00031.3573,W,4.1140,95.9800,040526,0.0,,A*4D
$GNGGA,173211.00,4850.9961,N,00031.3573,W,1,12,0.6,86.9,M,46.3,M,0,*6A
$GNRMC,173212.00,A,4850.9960,N,00031.3555,W,4.2270,95.5400,040526,0.0,,A*48
$GNGGA,173212.00,4850.9960,N,00031.3555,W,1,12,0.5,86.8,M,46.3,M,0,*6E
$GNRMC,173213.00,A,4850.9959,N,00031.3538,W,4.1860,95.2300,040526,0.0,,A*40
$GNGGA,173213.00,4850.9959,N,00031.3538,W,1,12,0.6,86.8,M,46.3,M,0,*6D
$GNRMC,173214.00,A,4850.9958,N,00031.3520,W,4.1880,94.9500,040526,0.0,,A*4D
$GNGGA,173214.00,4850.9958,N,00031.3520,W,1,12,0.6,86.7,M,46.3,M,0,*6D
$GNRMC,173215.00,A,4850.9957,N,00031.3502,W,4.2390,94.4100,040526,0.0,,A*43
$GNGGA,173215.00,4850.9957,N,00031.3502,W,1,12,0.5,86.8,M,46.3,M,0,*6F
$GNRMC,173216.00,A,4850.9956,N,00031.3485,W,4.2520,94.5700,040526,0.0,,A*45
$GNGGA,173216.00,4850.9956,N,00031.3485,W,1,12,0.5,86.8,M,46.3,M,0,*63
$GNRMC,173217.00,A,4850.9955,N,00031.3467,W,4.1750,94.1200,040526,0.0,,A*4C
$GNGGA,173217.00,4850.9955,N,00031.3467,W,1,12,0.5,86.8,M,46.3,M,0,*6D
$GNRMC,173218.00,A,4850.9954,N,00031.3449,W,4.1100,94.2400,040526,0.0,,A*48
$GNGGA,173218.00,4850.9954,N,00031.3449,W,1,12,0.5,86.8,M,46.3,M,0,*6F
$GNRMC,173219.00,A,4850.9953,N,00031.3433,W,4.0180,94.4200,040526,0.0,,A*4A
$GNGGA,173219.00,4850.9953,N,00031.3433,W,1,12,0.5,86.8,M,46.3,M,0,*64
$GNRMC,173220.00,A,4850.9952,N,00031.3416,W,3.9190,93.2300,040526,0.0,,A*49
$GNGGA,173220.00,4850.9952,N,00031.3416,W,1,12,0.5,86.8,M,46.3,M,0,*68
$GNRMC,173221.00,A,4850.9952,N,00031.3400,W,3.7860,93.7200,040526,0.0,,A*43
$GNGGA,173221.00,4850.9952,N,00031.3400,W,1,12,0.5,86.8,M,46.3,M,0,*6E
$GNRMC,173222.00,A,4850.9951,N,00031.3384,W,3.7720,94.9800,040526,0.0,,A*40
$GNGGA,173222.00,4850.9951,N,00031.3384,W,1,12,0.5,86.8,M,46.3,M,0,*65
$GNRMC,173223.00,A,4850.9950,N,00031.3369,W,3.5650,92.1300,040526,0.0,,A*42
$GNGGA,173223.00,4850.9950,N,00031.3369,W,1,12,0.5,86.8,M,46.3,M,0,*66
$GNRMC,173224.00,A,4850.9950,N,00031.3354,W,3.4300,92.3300,040526,0.0,,A*48
$GNGGA,173224.00,4850.9950,N,00031.3354,W,1,12,0.5,86.8,M,46.3,M,0,*6F
$GNRMC,173225.00,A,4850.9949,N,00031.3340,W,3.3660,94.3600,040526,0.0,,A*43
$GNGGA,173225.00,4850.9949,N,00031.3340,W,1,12,0.5,86.9,M,46.3,M,0,*62
$GNRMC,173226.00,A,4850.9949,N,00031.3326,W,3.3050,92.5200,040526,0.0,,A*41
$GNGGA,173226.00,4850.9949,N,00031.3326,W,1,12,0.5,86.9,M,46.3,M,0,*61
$GNRMC,173227.00,A,4850.9948,N,00031.3313,W,3.1470,93.4900,040526,0.0,,A*48
$GNGGA,173227.00,4850.9948,N,00031.3313,W,1,12,0.5,87.0,M,46.3,M,0,*6F
$GNRMC,173228.00,A,4850.9948,N,00031.3299,W,3.1060,92.5400,040526,0.0,,A*4C
$GNGGA,173228.00,4850.9948,N,00031.3299,W,1,12,0.5,87.0,M,46.3,M,0,*63
$GNRMC,173229.00,A,4850.9948,N,00031.3287,W,2.9920,91.3600,040526,0.0,,A*41
$GNGGA,173229.00,4850.9948,N,00031.3287,W,1,12,0.5,87.0,M,46.3,M,0,*6D
$GNRMC,173230.00,A,4850.9947,N,00031.3274,W,2.8990,91.5500,040526,0.0,,A*45
$GNGGA,173230.00,4850.9947,N,00031.3274,W,1,12,0.5,87.0,M,46.3,M,0,*66
$GNRMC,173231.00,A,4850.9947,N,00031.3262,W,2.8570,91.9300,040526,0.0,,A*4B
$GNGGA,173231.00,4850.9947,N,00031.3262,W,1,12,0.5,87.0,M,46.3,M,0,*60
$GNRMC,173232.00,A,4850.9947,N,00031.3251,W,2.7710,90.5300,040526,0.0,,A*4E
$GNGGA,173232.00,4850.9947,N,00031.3251,W,1,12,0.5,87.1,M,46.3,M,0,*62
$GNRMC,173233.00,A,4850.9947,N,00031.3239,W,2.6930,89.2700,040526,0.0,,A*47
$GNGGA,173233.00,4850.9947,N,00031.3239,W,1,12,0.5,87.1,M,46.3,M,0,*6D
$GNRMC,173234.00,A,4850.9947,N,00031.3228,W,2.6040,90.3400,040526,0.0,,A*44
$GNGGA,173234.00,4850.9947,N,00031.3228,W,1,12,0.5,87.2,M,46.3,M,0,*69
$GNRMC,173235.00,A,4850.9947,N,00031.3217,W,2.5570,89.4100,040526,0.0,,A*46
$GNGGA,173235.00,4850.9947,N,00031.3217,W,1,12,0.5,87.2,M,46.3,M,0,*64
$GNRMC,173236.00,A,4850.9948,N,00031.3207,W,2.4750,89.3700,040526,0.0,,A*4B
$GNGGA,173236.00,4850.9948,N,00031.3207,W,1,12,0.5,87.2,M,46.3,M,0,*69
$GNRMC,173237.00,A,4850.9948,N,00031.3196,W,2.4430,85.5800,040526,0.0,,A*41
$GNGGA,173237.00,4850.9948,N,00031.3196,W,1,12,0.5,87.2,M,46.3,M,0,*63
$GNRMC,173238.00,A,4850.9948,N,00031.3186,W,2.4550,88.5800,040526,0.0,,A*45
$GNGGA,173238.00,4850.9948,N,00031.3186,W,1,12,0.5,87.2,M,46.3,M,0,*6D
$GNRMC,173239.00,A,4850.9948,N,00031.3175,W,2.5710,90.6000,040526,0.0,,A*4D
$GNGGA,173239.00,4850.9948,N,00031.3175,W,1,12,0.5,87.2,M,46.3,M,0,*60
$GNRMC,173240.00,A,4850.9948,N,00031.3164,W,2.6020,89.0200,040526,0.0,,A*48
$GNGGA,173240.00,4850.9948,N,00031.3164,W,1,12,0.5,87.2,M,46.3,M,0,*6E
$GNRMC,173241.00,A,4850.9948,N,00031.3152,W,2.8320,89.6200,040526,0.0,,A*47
$GNGGA,173241.00,4850.9948,N,00031.3152,W,1,12,0.5,87.2,M,46.3,M,0,*6A
$GNRMC,173242.00,A,4850.9948,N,00031.3140,W,2.7310,90.3800,040526,0.0,,A*4C
$GNGGA,173242.00,4850.9948,N,00031.3140,W,1,12,0.5,87.2,M,46.3,M,0,*6A
$GNRMC,173243.00,A,4850.9948,N,00031.3128,W,3.1350,88.8600,040526,0.0,,A*4C
$GNGGA,173243.00,4850.9948,N,00031.3128,W,1,12,0.5,87.3,M,46.3,M,0,*64
$GNRMC,173244.00,A,4850.9948,N,00031.3114,W,3.2700,87.8400,040526,0.0,,A*4B
$GNGGA,173244.00,4850.9948,N,00031.3114,W,1,12,0.5,87.4,M,46.3,M,0,*6B
$GNRMC,173245.00,A,4850.9948,N,00031.3100,W,3.3050,87.5100,040526,0.0,,A*44
$GNGGA,173245.00,4850.9948,N,00031.3100,W,1,12,0.5,87.3,M,46.3,M,0,*68
$GNRMC,173246.00,A,4850.9949,N,00031.3085,W,3.4900,88.2900,040526,0.0,,A*41
$GNGGA,173246.00,4850.9949,N,00031.3085,W,1,12,0.5,87.3,M,46.3,M,0,*66
$GNRMC,173247.00,A,4850.9949,N,00031.3070,W,3.6500,90.5100,040526,0.0,,A*42
$GNGGA,173247.00,4850.9949,N,00031.3070,W,1,12,0.5,87.1,M,46.3,M,0,*6F
$GNRMC,173248.00,A,4850.9949,N,00031.3056,W,3.1560,89.2500,040526,0.0,,A*43
$GNGGA,173248.00,4850.9949,N,00031.3056,W,1,12,0.5,87.2,M,46.3,M,0,*67
$GNRMC,173249.00,A,4850.9949,N,00031.3041,W,3.4910,87.2500,040526,0.0,,A*44
$GNGGA,173249.00,4850.9949,N,00031.3041,W,1,12,0.5,87.2,M,46.3,M,0,*60
$GNRMC,173250.00,A,4850.9950,N,00031.3028,W,3.3100,85.2100,040526,0.0,,A*43
$GNGGA,173250.00,4850.9950,N,00031.3028,W,1,12,0.5,87.5,M,46.3,M,0,*68
$GNRMC,173251.00,A,4850.9949,N,00031.3013,W,3.3650,94.7100,040526,0.0,,A*45
$GNGGA,173251.00,4850.9949,N,00031.3013,W,1,12,0.5,87.0,M,46.3,M,0,*6C
$GNRMC,173252.00,A,4850.9949,N,00031.2999,W,3.1520,96.4700,040526,0.0,,A*4D
$GNGGA,173252.00,4850.9949,N,00031.2999,W,1,12,0.5,86.3,M,46.3,M,0,*67
$GNRMC,173253.00,A,4850.9948,N,00031.2984,W,3.3360,90.8600,040526,0.0,,A*4A
$GNGGA,173253.00,4850.9948,N,00031.2984,W,1,12,0.5,86.0,M,46.3,M,0,*68
$GNRMC,173254.00,A,4850.9949,N,00031.2970,W,3.3350,85.7600,040526,0.0,,A*4F
$GNGGA,173254.00,4850.9949,N,00031.2970,W,1,12,0.5,86.1,M,46.3,M,0,*64
$GNRMC,173255.00,A,4850.9949,N,00031.2956,W,3.2710,86.3600,040526,0.0,,A*4C
$GNGGA,173255.00,4850.9949,N,00031.2956,W,1,12,0.5,86.0,M,46.3,M,0,*60
$GNRMC,173256.00,A,4850.9950,N,00031.2942,W,3.2560,88.2900,040526,0.0,,A*47
$GNGGA,173256.00,4850.9950,N,00031.2942,W,1,12,0.5,85.9,M,46.3,M,0,*64
$GNRMC,173257.00,A,4850.9950,N,00031.2927,W,3.2910,86.1000,040526,0.0,,A*4A
$GNGGA,173257.00,4850.9950,N,00031.2927,W,1,12,0.5,85.9,M,46.3,M,0,*66
$GNRMC,173258.00,A,4850.9952,N,00031.2914,W,3.0960,84.9000,040526,0.0,,A*48
$GNGGA,173258.00,4850.9952,N,00031.2914,W,1,12,0.5,86.0,M,46.3,M,0,*61
$GNRMC,173259.00,A,4850.9953,N,00031.2900,W,3.0810,86.3100,040526,0.0,,A*42
$GNGGA,173259.00,4850.9953,N,00031.2900,W,1,12,0.5,85.9,M,46.3,M,0,*6E
$GNRMC,173300.00,A,4850.9953,N,00031.2886,W,3.2630,88.8500,040526,0.0,,A*4F
$GNGGA,173300.00,4850.9953,N,00031.2886,W,1,12,0.5,86.1,M,46.3,M,0,*67
$GNRMC,173301.00,A,4850.9954,N,00031.2873,W,3.0770,82.4100,040526,0.0,,A*46
$GNGGA,173301.00,4850.9954,N,00031.2873,W,1,12,0.5,86.1,M,46.3,M,0,*6B
$GNRMC,173302.00,A,4850.9955,N,00031.2860,W,2.9970,84.4000,040526,0.0,,A*47
$GNGGA,173302.00,4850.9955,N,00031.2860,W,1,12,0.5,86.1,M,46.3,M,0,*6B
$GNRMC,173303.00,A,4850.9956,N,00031.2848,W,2.9990,82.5300,040526,0.0,,A*45
$GNGGA,173303.00,4850.9956,N,00031.2848,W,1,12,0.5,86.1,M,46.3,M,0,*63
$GNRMC,173304.00,A,4850.9957,N,00031.2835,W,3.0010,83.5100,040526,0.0,,A*43
$GNGGA,173304.00,4850.9957,N,00031.2835,W,1,12,0.5,86.2,M,46.3,M,0,*6C
$GNRMC,173305.00,A,4850.9958,N,00031.2822,W,2.9930,82.8000,040526,0.0,,A*45
$GNGGA,173305.00,4850.9958,N,00031.2822,W,1,12,0.5,86.2,M,46.3,M,0,*64
$GNRMC,173306.00,A,4850.9960,N,00031.2809,W,3.0040,82.3000,040526,0.0,,A*49
$GNGGA,173306.00,4850.9960,N,00031.2809,W,1,12,0.5,86.3,M,46.3,M,0,*64
$GNRMC,173307.00,A,4850.9961,N,00031.2797,W,2.9740,83.1100,040526,0.0,,A*4C
$GNGGA,173307.00,4850.9961,N,00031.2797,W,1,12,0.5,86.3,M,46.3,M,0,*6C
$GNRMC,173308.00,A,4850.9962,N,00031.2784,W,2.8650,82.0700,040526,0.0,,A*45
$GNGGA,173308.00,4850.9962,N,00031.2784,W,1,12,0.5,86.3,M,46.3,M,0,*62
$GNRMC,173309.00,A,4850.9963,N,00031.2772,W,2.8450,81.4900,040526,0.0,,A*47
$GNGGA,173309.00,4850.9963,N,00031.2772,W,1,12,0.5,86.3,M,46.3,M,0,*6B
$GNRMC,173310.00,A,4850.9964,N,00031.2760,W,2.8590,81.9300,040526,0.0,,A*41
$GNGGA,173310.00,4850.9964,N,00031.2760,W,1,12,0.5,86.3,M,46.3,M,0,*67
$GNRMC,173311.00,A,4850.9966,N,00031.2748,W,2.8800,82.8800,040526,0.0,,A*45
$GNGGA,173311.00,4850.9966,N,00031.2748,W,1,12,0.5,86.4,M,46.3,M,0,*69
$GNRMC,173312.00,A,4850.9967,N,00031.2736,W,2.8650,81.6100,040526,0.0,,A*41
$GNGGA,173312.00,4850.9967,N,00031.2736,W,1,12,0.5,86.3,M,46.3,M,0,*65
$GNRMC,173313.00,A,4850.9968,N,00031.2723,W,2.8230,80.8500,040526,0.0,,A*42
$GNGGA,173313.00,4850.9968,N,00031.2723,W,1,12,0.5,86.4,M,46.3,M,0,*68
$GNRMC,173314.00,A,4850.9969,N,00031.2711,W,2.8870,80.5200,040526,0.0,,A*41
$GNGGA,173314.00,4850.9969,N,00031.2711,W,1,12,0.5,86.4,M,46.3,M,0,*6F
$GNRMC,173315.00,A,4850.9971,N,00031.2699,W,2.8490,81.4100,040526,0.0,,A*49
$GNGGA,173315.00,4850.9971,N,00031.2699,W,1,12,0.5,86.4,M,46.3,M,0,*66
$GNRMC,173316.00,A,4850.9972,N,00031.2687,W,2.8260,80.3000,040526,0.0,,A*48
$GNGGA,173316.00,4850.9972,N,00031.2687,W,1,12,0.5,86.4,M,46.3,M,0,*69
$GNRMC,173317.00,A,4850.9974,N,00031.2675,W,2.8650,78.9700,040526,0.0,,A*4F
$GNGGA,173317.00,4850.9974,N,00031.2675,W,1,12,0.5,86.4,M,46.3,M,0,*63
$GNRMC,173318.00,A,4850.9975,N,00031.2664,W,2.7580,78.6200,040526,0.0,,A*4A
$GNGGA,173318.00,4850.9975,N,00031.2664,W,1,12,0.5,86.4,M,46.3,M,0,*6D
$GNRMC,173319.00,A,4850.9977,N,00031.2652,W,2.7170,78.6600,040526,0.0,,A*43
$GNGGA,173319.00,4850.9977,N,00031.2652,W,1,12,0.5,86.4,M,46.3,M,0,*6B
$GNRMC,173320.00,A,4850.9978,N,00031.2641,W,2.7610,80.3300,040526,0.0,,A*42
$GNGGA,173320.00,4850.9978,N,00031.2641,W,1,12,0.5,86.3,M,46.3,M,0,*6B
$GNRMC,173321.00,A,4850.9979,N,00031.2629,W,2.6890,81.1400,040526,0.0,,A*4F
$GNGGA,173321.00,4850.9979,N,00031.2629,W,1,12,0.5,86.5,M,46.3,M,0,*63
$GNRMC,173322.00,A,4850.9981,N,00031.2618,W,2.7790,79.3600,040526,0.0,,A*40
$GNGGA,173322.00,4850.9981,N,00031.2618,W,1,12,0.5,86.4,M,46.3,M,0,*64
$GNRMC,173323.00,A,4850.9982,N,00031.2606,W,2.8830,79.8600,040526,0.0,,A*4C
$GNGGA,173323.00,4850.9982,N,00031.2606,W,1,12,0.5,86.4,M,46.3,M,0,*69
$GNRMC,173324.00,A,4850.9984,N,00031.2594,W,2.8000,79.2800,040526,0.0,,A*4A
$GNGGA,173324.00,4850.9984,N,00031.2594,W,1,12,0.5,86.4,M,46.3,M,0,*60
$GNRMC,173325.00,A,4850.9985,N,00031.2582,W,2.7790,80.8100,040526,0.0,,A*49
$GNGGA,173325.00,4850.9985,N,00031.2582,W,1,12,0.5,86.5,M,46.3,M,0,*66
$GNRMC,173326.00,A,4850.9987,N,00031.2571,W,2.8020,75.0900,040526,0.0,,A*4D
$GNGGA,173326.00,4850.9987,N,00031.2571,W,1,12,0.5,86.4,M,46.3,M,0,*6A
$GNRMC,173327.00,A,4850.9989,N,00031.2559,W,2.8800,77.0200,040526,0.0,,A*4B
$GNGGA,173327.00,4850.9989,N,00031.2559,W,1,12,0.5,86.4,M,46.3,M,0,*6F
$GNRMC,173328.00,A,4850.9990,N,00031.2547,W,2.9310,77.7000,040526,0.0,,A*4D
$GNGGA,173328.00,4850.9990,N,00031.2547,W,1,12,0.5,86.5,M,46.3,M,0,*66
$GNRMC,173329.00,A,4850.9992,N,00031.2535,W,2.9170,76.9400,040526,0.0,,A*44
$GNGGA,173329.00,4850.9992,N,00031.2535,W,1,12,0.5,86.5,M,46.3,M,0,*60
$GNRMC,173330.00,A,4850.9994,N,00031.2523,W,2.9660,76.8200,040526,0.0,,A*4C
$GNGGA,173330.00,4850.9994,N,00031.2523,W,1,12,0.5,86.4,M,46.3,M,0,*68
$GNRMC,173331.00,A,4850.9996,N,00031.2511,W,2.9890,76.5100,040526,0.0,,A*41
$GNGGA,173331.00,4850.9996,N,00031.2511,W,1,12,0.5,86.4,M,46.3,M,0,*6A
$GNRMC,173332.00,A,4850.9999,N,00031.2498,W,3.1100,76.9500,040526,0.0,,A*4C
$GNGGA,173332.00,4850.9999,N,00031.2498,W,1,12,0.5,86.3,M,46.3,M,0,*61
$GNRMC,173333.00,A,4851.0001,N,00031.2486,W,3.1140,75.8200,040526,0.0,,A*43
$GNGGA,173333.00,4851.0001,N,00031.2486,W,1,12,0.5,86.3,M,46.3,M,0,*6F
$GNRMC,173334.00,A,4851.0003,N,00031.2473,W,3.1330,75.3700,040526,0.0,,A*47
$GNGGA,173334.00,4851.0003,N,00031.2473,W,1,12,0.5,86.3,M,46.3,M,0,*60
$GNRMC,173335.00,A,4851.0006,N,00031.2460,W,3.1730,74.7800,040526,0.0,,A*4F
$GNGGA,173335.00,4851.0006,N,00031.2460,W,1,12,0.5,86.2,M,46.3,M,0,*67
$GNRMC,173336.00,A,4851.0008,N,00031.2447,W,3.1990,74.8600,040526,0.0,,A*42
$GNGGA,173336.00,4851.0008,N,00031.2447,W,1,12,0.5,86.2,M,46.3,M,0,*6F
$GNRMC,173337.00,A,4851.0011,N,00031.2434,W,3.2630,74.1500,040526,0.0,,A*43
$GNGGA,173337.00,4851.0011,N,00031.2434,W,1,12,0.5,86.2,M,46.3,M,0,*62
$GNRMC,173338.00,A,4851.0014,N,00031.2421,W,3.2780,74.6500,040526,0.0,,A*40
$GNGGA,173338.00,4851.0014,N,00031.2421,W,1,12,0.5,86.2,M,46.3,M,0,*6C
$GNRMC,173339.00,A,4851.0016,N,00031.2408,W,3.3390,73.7800,040526,0.0,,A*47
$GNGGA,173339.00,4851.0016,N,00031.2408,W,1,12,0.5,86.2,M,46.3,M,0,*64
$GNRMC,173340.00,A,4851.0019,N,00031.2394,W,3.4180,74.1600,040526,0.0,,A*4F
$GNGGA,173340.00,4851.0019,N,00031.2394,W,1,12,0.5,86.2,M,46.3,M,0,*67
$GNRMC,173341.00,A,4851.0022,N,00031.2380,W,3.4610,73.1000,040526,0.0,,A*4C
$GNGGA,173341.00,4851.0022,N,00031.2380,W,1,12,0.5,86.2,M,46.3,M,0,*6B
$GNRMC,173342.00,A,4851.0025,N,00031.2366,W,3.4890,73.1600,040526,0.0,,A*40
$GNGGA,173342.00,4851.0025,N,00031.2366,W,1,12,0.5,86.2,M,46.3,M,0,*67
$GNRMC,173343.00,A,4851.0027,N,00031.2352,W,3.5230,73.1500,040526,0.0,,A*46
$GNGGA,173343.00,4851.0027,N,00031.2352,W,1,12,0.5,86.2,M,46.3,M,0,*63
$GNRMC,173344.00,A,4851.0030,N,00031.2338,W,3.5810,72.3500,040526,0.0,,A*40
$GNGGA,173344.00,4851.0030,N,00031.2338,W,1,12,0.5,86.2,M,46.3,M,0,*6E
$GNRMC,173345.00,A,4851.0034,N,00031.2323,W,3.5860,72.0200,040526,0.0,,A*4C
$GNGGA,173345.00,4851.0034,N,00031.2323,W,1,12,0.5,86.2,M,46.3,M,0,*61
$GNRMC,173346.00,A,4851.0037,N,00031.2309,W,3.6560,72.0500,040526,0.0,,A*4D
$GNGGA,173346.00,4851.0037,N,00031.2309,W,1,12,0.5,86.2,M,46.3,M,0,*69
$GNRMC,173347.00,A,4851.0040,N,00031.2294,W,3.6560,71.8000,040526,0.0,,A*47
$GNGGA,173347.00,4851.0040,N,00031.2294,W,1,12,0.5,86.2,M,46.3,M,0,*6D
$GNRMC,173348.00,A,4851.0043,N,00031.2279,W,3.6250,71.1500,040526,0.0,,A*40
$GNGGA,173348.00,4851.0043,N,00031.2279,W,1,12,0.5,86.3,M,46.3,M,0,*63
$GNRMC,173349.00,A,4851.0047,N,00031.2265,W,3.6400,71.2300,040526,0.0,,A*4E
$GNGGA,173349.00,4851.0047,N,00031.2265,W,1,12,0.5,86.2,M,46.3,M,0,*6A
$GNRMC,173350.00,A,4851.0050,N,00031.2250,W,3.6610,70.7700,040526,0.0,,A*45
$GNGGA,173350.00,4851.0050,N,00031.2250,W,1,12,0.5,86.2,M,46.3,M,0,*62
$GNRMC,173351.00,A,4851.0053,N,00031.2236,W,3.6480,70.4100,040526,0.0,,A*49
$GNGGA,173351.00,4851.0053,N,00031.2236,W,1,12,0.5,86.2,M,46.3,M,0,*60
$GNRMC,173352.00,A,4851.0056,N,00031.2221,W,3.6170,70.1800,040526,0.0,,A*4F
$GNGGA,173352.00,4851.0056,N,00031.2221,W,1,12,0.5,86.2,M,46.3,M,0,*60
$GNRMC,173353.00,A,4851.0060,N,00031.2206,W,3.6290,70.1100,040526,0.0,,A*4A
$GNGGA,173353.00,4851.0060,N,00031.2206,W,1,12,0.5,86.2,M,46.3,M,0,*61
$GNRMC,173354.00,A,4851.0063,N,00031.2192,W,3.6430,69.6900,040526,0.0,,A*4B
$GNGGA,173354.00,4851.0063,N,00031.2192,W,1,12,0.5,86.1,M,46.3,M,0,*68
$GNRMC,173355.00,A,4851.0067,N,00031.2178,W,3.5750,68.2800,040526,0.0,,A*48
$GNGGA,173355.00,4851.0067,N,00031.2178,W,1,12,0.5,86.1,M,46.3,M,0,*69
$GNRMC,173356.00,A,4851.0070,N,00031.2164,W,3.6070,69.1300,040526,0.0,,A*4F
$GNGGA,173356.00,4851.0070,N,00031.2164,W,1,12,0.5,86.1,M,46.3,M,0,*61
$GNRMC,173357.00,A,4851.0074,N,00031.2150,W,3.6280,67.3900,040526,0.0,,A*46
$GNGGA,173357.00,4851.0074,N,00031.2150,W,1,12,0.5,86.1,M,46.3,M,0,*63
$GNRMC,173358.00,A,4851.0077,N,00031.2135,W,3.6050,68.6800,040526,0.0,,A*4D
$GNGGA,173358.00,4851.0077,N,00031.2135,W,1,12,0.5,86.1,M,46.3,M,0,*6C
$GNRMC,173359.00,A,4851.0081,N,00031.2122,W,3.6260,68.3400,040526,0.0,,A*4B
$GNGGA,173359.00,4851.0081,N,00031.2122,W,1,12,0.5,86.1,M,46.3,M,0,*62
$GNRMC,173400.00,A,4851.0085,N,00031.2108,W,3.6640,69.0500,040526,0.0,,A*49
$GNGGA,173400.00,4851.0085,N,00031.2108,W,1,12,0.5,86.2,M,46.3,M,0,*66
$GNRMC,173401.00,A,4851.0088,N,00031.2094,W,3.5700,70.1300,040526,0.0,,A*48
$GNGGA,173401.00,4851.0088,N,00031.2094,W,1,12,0.5,86.1,M,46.3,M,0,*6D
$GNRMC,173402.00,A,4851.0092,N,00031.2080,W,3.6840,67.1100,040526,0.0,,A*49
$GNGGA,173402.00,4851.0092,N,00031.2080,W,1,12,0.5,86.2,M,46.3,M,0,*63
$GNRMC,173403.00,A,4851.0096,N,00031.2066,W,3.5810,67.1100,040526,0.0,,A*42
$GNGGA,173403.00,4851.0096,N,00031.2066,W,1,12,0.5,86.2,M,46.3,M,0,*6E
$GNRMC,173404.00,A,4851.0100,N,00031.2051,W,3.5850,66.0600,040526,0.0,,A*4C
$GNGGA,173404.00,4851.0100,N,00031.2051,W,1,12,0.5,86.3,M,46.3,M,0,*62
$GNRMC,173405.00,A,4851.0104,N,00031.2038,W,3.6000,63.5200,040526,0.0,,A*4C
$GNGGA,173405.00,4851.0104,N,00031.2038,W,1,12,0.5,86.3,M,46.3,M,0,*68
$GNRMC,173406.00,A,4851.0109,N,00031.2024,W,3.5720,66.2000,040526,0.0,,A*49
$GNGGA,173406.00,4851.0109,N,00031.2024,W,1,12,0.5,86.3,M,46.3,M,0,*6B
$GNRMC,173407.00,A,4851.0113,N,00031.2011,W,3.5190,63.8200,040526,0.0,,A*45
$GNGGA,173407.00,4851.0113,N,00031.2011,W,1,12,0.5,86.3,M,46.3,M,0,*67
$GNRMC,173408.00,A,4851.0117,N,00031.1997,W,3.4910,63.8600,040526,0.0,,A*4F
$GNGGA,173408.00,4851.0117,N,00031.1997,W,1,12,0.5,86.4,M,46.3,M,0,*6F
$GNRMC,173409.00,A,4851.0121,N,00031.1984,W,3.4980,63.1800,040526,0.0,,A*47
$GNGGA,173409.00,4851.0121,N,00031.1984,W,1,12,0.5,86.4,M,46.3,M,0,*69
$GNRMC,173410.00,A,4851.0125,N,00031.1971,W,3.4700,64.4800,040526,0.0,,A*45
$GNGGA,173410.00,4851.0125,N,00031.1971,W,1,12,0.5,86.4,M,46.3,M,0,*6F
$GNRMC,173411.00,A,4851.0129,N,00031.1958,W,3.5720,64.3800,040526,0.0,,A*47
$GNGGA,173411.00,4851.0129,N,00031.1958,W,1,12,0.5,86.4,M,46.3,M,0,*69
$GNRMC,173412.00,A,4851.0134,N,00031.1945,W,3.4240,65.4400,040526,0.0,,A*4C
$GNGGA,173412.00,4851.0134,N,00031.1945,W,1,12,0.5,86.6,M,46.3,M,0,*68
$GNRMC,173413.00,A,4851.0138,N,00031.1932,W,3.3950,63.5700,040526,0.0,,A*48
$GNGGA,173413.00,4851.0138,N,00031.1932,W,1,12,0.5,86.8,M,46.3,M,0,*6B
$GNRMC,173414.00,A,4851.0142,N,00031.1920,W,3.4770,64.0700,040526,0.0,,A*48
$GNGGA,173414.00,4851.0142,N,00031.1920,W,1,12,0.5,86.9,M,46.3,M,0,*63
$GNRMC,173415.00,A,4851.0146,N,00031.1907,W,3.3140,62.2300,040526,0.0,,A*4A
$GNGGA,173415.00,4851.0146,N,00031.1907,W,1,12,0.5,87.0,M,46.3,M,0,*6B
$GNRMC,173416.00,A,4851.0150,N,00031.1894,W,3.3820,63.2700,040526,0.0,,A*4F
$GNGGA,173416.00,4851.0150,N,00031.1894,W,1,12,0.5,87.1,M,46.3,M,0,*65
$GNRMC,173417.00,A,4851.0154,N,00031.1882,W,3.2960,62.8500,040526,0.0,,A*40
$GNGGA,173417.00,4851.0154,N,00031.1882,W,1,12,0.5,87.2,M,46.3,M,0,*64
$GNRMC,173418.00,A,4851.0159,N,00031.1870,W,3.2880,61.2300,040526,0.0,,D*4A
$GNGGA,173418.00,4851.0159,N,00031.1870,W,2,12,0.5,87.2,M,46.3,M,0,*68
$GNRMC,173419.00,A,4851.0163,N,00031.1858,W,3.2600,59.2900,040526,0.0,,D*4F
$GNGGA,173419.00,4851.0163,N,00031.1858,W,2,12,0.5,87.3,M,46.3,M,0,*6B
$GNRMC,173420.00,A,4851.0168,N,00031.1846,W,3.2390,60.9200,040526,0.0,,D*47
$GNGGA,173420.00,4851.0168,N,00031.1846,W,2,12,0.5,87.4,M,46.3,M,0,*62
$GNRMC,173421.00,A,4851.0172,N,00031.1834,W,3.2110,62.7700,040526,0.0,,D*4B
$GNGGA,173421.00,4851.0172,N,00031.1834,W,2,12,0.5,87.5,M,46.3,M,0,*6C
$GNRMC,173422.00,A,4851.0177,N,00031.1822,W,3.2730,58.9200,040526,0.0,,D*4C
$GNGGA,173422.00,4851.0177,N,00031.1822,W,2,12,0.5,87.5,M,46.3,M,0,*6D
$GNRMC,173423.00,A,4851.0181,N,00031.1810,W,3.0890,60.3900,040526,0.0,,D*48
$GNGGA,173423.00,4851.0181,N,00031.1810,W,2,12,0.5,87.6,M,46.3,M,0,*67
$GNRMC,173424.00,A,4851.0185,N,00031.1799,W,3.0130,60.2900,040526,0.0,,D*47
$GNGGA,173424.00,4851.0185,N,00031.1799,W,2,12,0.5,87.5,M,46.3,M,0,*69
$GNRMC,173425.00,A,4851.0189,N,00031.1788,W,3.0950,59.9600,040526,0.0,,D*4A
$GNGGA,173425.00,4851.0189,N,00031.1788,W,2,12,0.5,87.5,M,46.3,M,0,*64
$GNRMC,173426.00,A,4851.0194,N,00031.1777,W,2.8490,54.1200,040526,0.0,,D*4C
$GNGGA,173426.00,4851.0194,N,00031.1777,W,2,12,0.5,87.6,M,46.3,M,0,*68
$GNRMC,173427.00,A,4851.0198,N,00031.1766,W,2.8990,60.3700,040526,0.0,,D*4C
$GNGGA,173427.00,4851.0198,N,00031.1766,W,2,12,0.5,87.7,M,46.3,M,0,*64
$GNRMC,173428.00,A,4851.0203,N,00031.1754,W,3.0030,58.4100,040526,0.0,,D*43
$GNGGA,173428.00,4851.0203,N,00031.1754,W,2,12,0.5,87.6,M,46.3,M,0,*6A
$GNRMC,173429.00,A,4851.0208,N,00031.1743,W,2.9920,57.2300,040526,0.0,,D*44
$GNGGA,173429.00,4851.0208,N,00031.1743,W,2,12,0.5,87.6,M,46.3,M,0,*66
$GNRMC,173430.00,A,4851.0212,N,00031.1731,W,2.9280,60.4400,040526,0.0,,D*46
$GNGGA,173430.00,4851.0212,N,00031.1731,W,2,12,0.5,87.4,M,46.3,M,0,*62
$GNRMC,173431.00,A,4851.0217,N,00031.1719,W,3.0550,56.8300,040526,0.0,,D*44
$GNGGA,173431.00,4851.0217,N,00031.1719,W,2,12,0.5,87.4,M,46.3,M,0,*6C
$GNRMC,173432.00,A,4851.0222,N,00031.1707,W,3.1690,59.3000,040526,0.0,,D*47
$GNGGA,173432.00,4851.0222,N,00031.1707,W,2,12,0.5,87.2,M,46.3,M,0,*60
$GNRMC,173433.00,A,4851.0226,N,00031.1695,W,3.2610,60.7000,040526,0.0,,D*4D
$GNGGA,173433.00,4851.0226,N,00031.1695,W,2,12,0.5,87.1,M,46.3,M,0,*6C
$GNRMC,173434.00,A,4851.0231,N,00031.1683,W,3.1890,60.8600,040526,0.0,,D*47
$GNGGA,173434.00,4851.0231,N,00031.1683,W,2,12,0.5,87.1,M,46.3,M,0,*6A
$GNRMC,173435.00,A,4851.0235,N,00031.1670,W,3.1850,61.0000,040526,0.0,,D*4D
$GNGGA,173435.00,4851.0235,N,00031.1670,W,2,12,0.5,87.1,M,46.3,M,0,*63
$GNRMC,173436.00,A,4851.0239,N,00031.1659,W,3.1950,58.7500,040526,0.0,,D*40
$GNGGA,173436.00,4851.0239,N,00031.1659,W,2,12,0.5,87.0,M,46.3,M,0,*66
$GNRMC,173437.00,A,4851.0244,N,00031.1647,W,3.3020,58.1500,040526,0.0,,D*4E
$GNGGA,173437.00,4851.0244,N,00031.1647,W,2,12,0.5,87.0,M,46.3,M,0,*62
$GNRMC,173438.00,A,4851.0249,N,00031.1634,W,3.4400,58.9100,040526,0.0,,D*45
$GNGGA,173438.00,4851.0249,N,00031.1634,W,2,12,0.5,86.9,M,46.3,M,0,*6C
$GNRMC,173439.00,A,4851.0254,N,00031.1622,W,3.4790,57.6900,040526,0.0,,D*4D
$GNGGA,173439.00,4851.0254,N,00031.1622,W,2,12,0.5,86.9,M,46.3,M,0,*66
$GNRMC,173440.00,A,4851.0260,N,00031.1609,W,3.5550,57.8900,040526,0.0,,D*4C
$GNGGA,173440.00,4851.0260,N,00031.1609,W,2,12,0.5,86.8,M,46.3,M,0,*67
$GNRMC,173441.00,A,4851.0266,N,00031.1596,W,3.7400,57.9300,040526,0.0,,D*43
$GNGGA,173441.00,4851.0266,N,00031.1596,W,2,12,0.5,86.6,M,46.3,M,0,*6B
$GNRMC,173442.00,A,4851.0272,N,00031.1582,W,3.8810,57.6400,040526,0.0,,D*4A
$GNGGA,173442.00,4851.0272,N,00031.1582,W,2,12,0.5,86.4,M,46.3,M,0,*6A
$GNRMC,173443.00,A,4851.0278,N,00031.1567,W,4.0830,58.0300,040526,0.0,,D*49
$GNGGA,173443.00,4851.0278,N,00031.1567,W,2,12,0.5,86.2,M,46.3,M,0,*6C
$GNRMC,173444.00,A,4851.0284,N,00031.1552,W,4.0640,57.3700,040526,0.0,,D*4A
$GNGGA,173444.00,4851.0284,N,00031.1552,W,2,12,0.5,86.0,M,46.3,M,0,*6C
$GNRMC,173445.00,A,4851.0290,N,00031.1537,W,4.1780,56.7600,040526,0.0,,D*45
$GNGGA,173445.00,4851.0290,N,00031.1537,W,2,12,0.5,85.9,M,46.3,M,0,*61
$GNRMC,173446.00,A,4851.0297,N,00031.1521,W,4.3080,57.3900,040526,0.0,,D*49
$GNGGA,173446.00,4851.0297,N,00031.1521,W,2,12,0.5,85.8,M,46.3,M,0,*63
$GNRMC,173447.00,A,4851.0304,N,00031.1506,W,4.3740,56.4000,040526,0.0,,D*42
$GNGGA,173447.00,4851.0304,N,00031.1506,W,2,12,0.5,85.8,M,46.3,M,0,*6C
$GNRMC,173448.00,A,4851.0310,N,00031.1490,W,4.4430,58.5700,040526,0.0,,D*4D
$GNGGA,173448.00,4851.0310,N,00031.1490,W,2,12,0.5,85.7,M,46.3,M,0,*67
$GNRMC,173449.00,A,4851.0317,N,00031.1473,W,4.5480,57.5800,040526,0.0,,D*4C
$GNGGA,173449.00,4851.0317,N,00031.1473,W,2,12,0.5,85.7,M,46.3,M,0,*6C
$GNRMC,173450.00,A,4851.0323,N,00031.1456,W,4.6600,58.1200,040526,0.0,,D*4C
$GNGGA,173450.00,4851.0323,N,00031.1456,W,2,12,0.5,85.7,M,46.3,M,0,*64
$GNRMC,173451.00,A,4851.0330,N,00031.1439,W,4.8060,57.7800,040526,0.0,,D*4B
$GNGGA,173451.00,4851.0330,N,00031.1439,W,2,12,0.5,85.7,M,46.3,M,0,*6E
$GNRMC,173452.00,A,4851.0338,N,00031.1422,W,4.9850,57.3900,040526,0.0,,D*45
$GNGGA,173452.00,4851.0338,N,00031.1422,W,2,12,0.5,85.7,M,46.3,M,0,*6F
$GNRMC,173453.00,A,4851.0345,N,00031.1404,W,5.0240,57.1800,040526,0.0,,D*4A
$GNGGA,173453.00,4851.0345,N,00031.1404,W,2,12,0.5,85.6,M,46.3,M,0,*61
$GNRMC,173454.00,A,4851.0353,N,00031.1385,W,5.0780,56.7400,040526,0.0,,D*46
$GNGGA,173454.00,4851.0353,N,00031.1385,W,2,12,0.5,85.7,M,46.3,M,0,*6E
$GNRMC,173455.00,A,4851.0360,N,00031.1367,W,4.9700,56.7500,040526,0.0,,D*4A
$GNGGA,173455.00,4851.0360,N,00031.1367,W,2,12,0.5,85.6,M,46.3,M,0,*62
$GNRMC,173456.00,A,4851.0367,N,00031.1349,W,4.8940,57.2000,040526,0.0,,D*48
$GNGGA,173456.00,4851.0367,N,00031.1349,W,2,12,0.5,85.5,M,46.3,M,0,*69
$GNRMC,173457.00,A,4851.0375,N,00031.1332,W,4.8430,57.0700,040526,0.0,,D*49
$GNGGA,173457.00,4851.0375,N,00031.1332,W,2,12,0.5,85.5,M,46.3,M,0,*67
